NAME,LCITY,LAT,LON,TYPE
Bright Horizons Children's Center Inc.,Bethel,41.425621,-73.396351,daycare
Fun Steps Preschool Child Care Ctr,Bethel,41.397111,-73.401462,daycare
Gingerbread School House,Bethel,41.391781,-73.386731,daycare
Kindercare Learning Centerinc #1381,Bethel,41.412841,-73.380292,daycare
Little Friends Pre-school Llc,Bethel,41.38237,-73.417961,daycare
Precious Moments Day Care Ctr Inc,Bethel,41.39192,-73.382161,daycare
The Sandbox Day Care Center Of Bethel Llc,Bethel,41.3712793,-73.40756592,daycare
Village Pre-school,Bethel,41.37115,-73.412192,daycare
Ymca Children's Center,Bethel,41.3737,-73.423852,daycare
Brookfield School Age Child Care,Brookfield,41.44798347,-73.41854727,daycare
Christian Life Academy,Brookfield,41.45542,-73.401332,daycare
Country Kids Club,Brookfield,41.43904,-73.405451,daycare
Country Kids Play Farm Inc,Brookfield,41.4399,-73.405262,daycare
Greenknoll Children's Center,Brookfield,41.45229,-73.402962,daycare
Greenknoll Children's Center Annex Unit I-e,Brookfield,41.45402,-73.402932,daycare
Kids Castle Child Care Learning Center,Brookfield,41.479891,-73.408922,daycare
Montessori Community School At,Brookfield,41.44084,-73.379262,daycare
The Goddard School,Brookfield,41.49221,-73.418751,daycare
Action Early Learning Center,Danbury,41.40343,-73.455442,daycare
Best Friends Preschool,Danbury,41.37992,-73.444962,daycare
Cedargables Pre-school Llc,Danbury,41.43314,-73.493677,daycare
Children's Choice Inc.,Danbury,41.367186,-73.479437,daycare
Cifc/hsnfc School Readiness Program,Danbury,41.391001,-73.448792,daycare
Danbury Even Start Early Learning Center,Danbury,41.387688,-73.480505,daycare
Danbury Public School Child Care Prog,Danbury,41.395008,-73.465112,daycare
Hats Off To Kids Llc,Danbury,41.408773,-73.46745,daycare
Head Start Of Northern Fairfield Cty Lrl,Danbury,41.401099,-73.458591,daycare
Hudson Country Montessori School,Danbury,41.390444,-73.430295,daycare
Interfaith Early Learning Center,Danbury,41.404501,-73.440392,daycare
Kindercare Learning Ctr Inc #755,Danbury,41.42088,-73.499082,daycare
King Street Nursery School Inc.,Danbury,41.428912,-73.506301,daycare
Little People Learning Center Llc,Danbury,41.399987,-73.43494,daycare
Little Rascals Nursery School Inc,Danbury,41.43633,-73.478101,daycare
Mill Ridge School Readiness Program,Danbury,41.387688,-73.480505,daycare
New England Country Day School Inc.,Danbury,41.378927,-73.494422,daycare
Right Place,Danbury,41.390959,-73.451433,daycare
Sandbox Day Care Center Llc,Danbury,41.444461,-73.426522,daycare
Sandbox Too!,Danbury,41.37703,-73.463962,daycare
Wee Wisdom Child Care Center Fed.corrct.inst-l.sipe Bldg-rt,Danbury,41.3756,-73.4596,daycare
West Side Children's Center,Danbury,41.378561,-73.464002,daycare
Western Ct State University Child Care Ctr,Danbury,41.4006,-73.444511,daycare
First Cong Church Darien Nursery School,Darien,41.081471,-73.465221,daycare
Holly Pond School,Darien,41.05856,-73.498631,daycare
Methodist Family Center Preschool Inc.,Darien,41.083926,-73.48593,daycare
Noroton Presbyterian Church Tot Drop,Darien,41.06018,-73.488072,daycare
Our Gang Nursery School,Darien,41.0849,-73.458821,daycare
St. John Pre School,Darien,41.060451,-73.487151,daycare
St. Luke's Parish School,Darien,41.061425,-73.48407,daycare
St. Thomas More Happiness Preschool,Darien,41.086501,-73.485691,daycare
Banksville Nursery School,Greenwich,41.05835,-73.658709,daycare
Bridges School- Amherst Program,Riverside,41.050051,-73.572071,daycare
Chabad Gan Of Greenwich,Greenwich,41.0298,-73.624501,daycare
Children's Day School Inc.,Greenwich,41.037501,-73.664017,daycare
Children's Day School Inc.,Riverside,41.040301,-73.586462,daycare
Christ Church Nursery School,Greenwich,41.03190073,-73.6193233,daycare
Cos Cob Play Group,Cos cob,41.03975381,-73.59805656,daycare
Family Centers Preschool,Greenwich,41.02341643,-73.62789992,daycare
First Church Preschool,Old greenwich,41.03661251,-73.5687205,daycare
First Presbyterian Church Nur Sch,Greenwich,41.03153379,-73.62829329,daycare
Gateway School,Greenwich,41.01541397,-73.65196618,daycare
Glenville Child Care Inc. At Wms,Greenwich,41.01039,-73.648759,daycare
Greenwich Family Ymca @ New Lebanon,Greenwich,41.0015,-73.656022,daycare
Greenwich Family Ymca Child Care,Greenwich,41.01757035,-73.63981683,daycare
Greenwich Kokusai Garkuen/wideworld,Cos cob,41.041292,-73.592738,daycare
International School Child Care,Old greenwich,41.034683,-73.567051,daycare
Joan Melber Warburg Early Childhood,Greenwich,41.0217744,-73.63323826,daycare
Little Friends,Greenwich,41.02024485,-73.64472937,daycare
Mencius Mandarin Preschool,Greenwich,41.036651,-73.604321,daycare
North Greenwich Nursery School,Greenwich,41.09575085,-73.68959008,daycare
Old Greenwich School Child Care,Old greenwich,41.02949653,-73.5676233,daycare
Pat-a-cake Playschool Inc.,Greenwich,41.00666853,-73.65395772,daycare
Putnam-indian Field School Inc,Greenwich,41.025599,-73.605488,daycare
Round Hill Nur Sch Inc 'first Step',Greenwich,41.09555191,-73.66615761,daycare
Round Hill Nursery School,Greenwich,41.1053844,-73.66860802,daycare
Selma Maisel Nursery School,Greenwich,41.03597979,-73.61710508,daycare
St Paul's Day School,Riverside,41.027301,-73.584271,daycare
St. Saviour's Church Nrsry Sch,Old greenwich,41.024181,-73.565782,daycare
The Learning Garden Christian Preschool,Greenwich,41.08215611,-73.71168879,daycare
The Preschool @ Second Congregational,Greenwich,41.03553421,-73.62315787,daycare
Tiny Tots' School,Riverside,41.034071,-73.587911,daycare
Ymca Greenwich Child Care@ North Mianus,Riverside,41.057701,-73.580851,daycare
Ywca Child Care Center,Greenwich,41.03831321,-73.61841275,daycare
Beginner's Nature Program,New canaan,41.153663,-73.4995,daycare
Beginner's Nature Program--annex,New canaan,41.153663,-73.4995,daycare
Day Care Center Of New Canaan Inc,New canaan,41.141392,-73.491369,daycare
First Presbyterian Nrsry Sch,New canaan,41.154611,-73.499944,daycare
New Canaan Community Nursery School,New canaan,41.136889,-73.47721,daycare
New Canaan Ymca Child Development Center,New canaan,41.129454,-73.486525,daycare
Playland Nursery School - Brown,New canaan,41.139669,-73.527446,daycare
Playland Nursery School - Redwood,New canaan,41.139669,-73.527446,daycare
Playland Nursery School - White,New canaan,41.139669,-73.527446,daycare
St Mark's Nursery School,New canaan,41.151454,-73.498336,daycare
The Tot's Spot,New canaan,41.135064,-73.49675,daycare
Toddler Time To Five,New canaan,41.148667,-73.495761,daycare
United Methodist Church Nrsry School,New canaan,41.141136,-73.491417,daycare
Christian Day Nursery School,Danbury,41.391612,-73.453537,daycare
Beehive Children's Center Inc.,New milford,41.53932,-73.422131,daycare
Children's Center Of New Milford Inc,New milford,41.581709,-73.41259,daycare
Education Center Of United Methodist,New milford,41.56507,-73.414832,daycare
For Children Only Inc.,New milford,41.544811,-73.413092,daycare
Holy Infant Nursery School,New milford,41.58059,-73.411391,daycare
Kinder Care Learning Center,New milford,41.54645,-73.420532,daycare
Litchfield County Head Start-hill & Plain,New milford,41.53444,-73.429692,daycare
Litchfield County Head Start-pettibone,New milford,41.56346,-73.411572,daycare
Little People N.s. First Assembly Of God,New milford,41.601591,-73.403322,daycare
Tia's Country Day Care & School,New milford,41.599831,-73.403862,daycare
Time For Children,New milford,41.600691,-73.406782,daycare
Top Flight Sports Center Preschool,New milford,41.563621,-73.411822,daycare
Wow Kids Learning Center And Child Care,New milford,41.5039,-73.418442,daycare
Housatonic Valley Waldorf Schl Early,Newtown,41.378557,-73.354368,daycare
A Kid's Place Inc.,Norwalk,41.103351,-73.427131,daycare
All Saints Daycare,Norwalk,41.13621,-73.414982,daycare
Busy Bodies Child Care Center Inc.,Norwalk,41.153611,-73.412662,daycare
Carousel Preschool Day Nursery Inc,Norwalk,41.123823,-73.409933,daycare
Carver After School Program For,Norwalk,41.11382,-73.413492,daycare
Children's Playhouse,Norwalk,41.08645,-73.429732,daycare
Columbus Magnet School,Norwalk,41.093461,-73.420441,daycare
Community Co-op Nrsry Sch Inc.,Norwalk,41.0751,-73.430172,daycare
Cranbury Elementary School,Norwalk,41.155383,-73.403367,daycare
Five Mile River Nursery School,Norwalk,41.069598,-73.442509,daycare
Fox Run Elementary School,Norwalk,41.114951,-73.454242,daycare
Growing Seeds Child Development Center,Norwalk,41.099971,-73.422461,daycare
Happy Time Nursery School,Norwalk,41.133176,-73.4526,daycare
L'il Critters Preschool Inc.,Norwalk,41.119738,-73.408251,daycare
Marvin Children's Center,Norwalk,41.097861,-73.400171,daycare
Naramake Family Resource Center Inc.,Norwalk,41.119271,-73.391341,daycare
Neon At Ben Franklin,Norwalk,41.09778,-73.424801,daycare
Nitzan Nursery School,Norwalk,41.11463,-73.407671,daycare
Norwalk Comm Child Development,Norwalk,41.1016,-73.451321,daycare
Ponus Ridge @ Middle School,Norwalk,41.122061,-73.431708,daycare
Room To Grow,Norwalk,41.10567,-73.405012,daycare
Safe & Sound Day Care Ii,Norwalk,41.094221,-73.434522,daycare
Silvermine School,Norwalk,41.14797,-73.440311,daycare
Sonshine Christian Children's Center,Norwalk,41.115494,-73.415064,daycare
The Center Day Care,Norwalk,41.156971,-73.422202,daycare
The Children's Playhouse Inc.,Norwalk,41.103111,-73.419861,daycare
The Clover Hill School Inc.,Norwalk,41.102831,-73.402341,daycare
Toni's Day Care,Norwalk,41.120311,-73.405671,daycare
Tracey Elementary School,Norwalk,41.12422,-73.413984,daycare
Tumble Bugs Day School,Norwalk,41.136171,-73.401471,daycare
Tutor Time Child Care Learning Center,Norwalk,41.150619,-73.425144,daycare
United Church Nursery School,Norwalk,41.07143,-73.444002,daycare
West Norwalk Nursery School,Norwalk,41.113401,-73.453492,daycare
West Rocks Middle School,Norwalk,41.13484,-73.414302,daycare
Ymca Of Norwalk Inc. Little Wonders,Norwalk,41.1114,-73.416901,daycare
Kid's Time Preschool & Daycare Inc.,Redding,41.26073,-73.429272,daycare
Montessori School Of Redding Llc,Redding center,41.30721,-73.38244,daycare
Pinewood Learning Center,Redding,41.314111,-73.464331,daycare
All For Kids,Ridgefield,41.314911,-73.472892,daycare
Almost Home,Ridgefield,41.295437,-73.495203,daycare
Apple Blossom Children's Center,Ridgefield,41.37526,-73.526189,daycare
Children's Corner Inc.,Ridgefield,41.323848,-73.510459,daycare
Creative Children's Korner Inc.,Ridgefield,41.2662,-73.525792,daycare
Jesse Lee Day School,Ridgefield,41.27559,-73.497531,daycare
Kaleidoscope Kids,Ridgefield,41.361015,-73.524635,daycare
My Nursery School,Ridgefield,41.31281,-73.514801,daycare
Ridgefield Community Kindergarten,Ridgefield,41.278645,-73.497999,daycare
Ridgefield Montessori School,Ridgefield,41.292111,-73.493502,daycare
St. Stephen's Nursery School,Ridgefield,41.279575,-73.498305,daycare
Sherman Nursery School,Sherman,41.598121,-73.496171,daycare
All About Kids Inc.,Stamford,41.05657,-73.506512,daycare
Art Nature & Me @ Stamford Museum &,Stamford,41.123641,-73.545692,daycare
Baby Cottage Ii,Stamford,41.096414,-73.519834,daycare
Baby Cottage Inc.,Stamford,41.09781,-73.531551,daycare
Bright Horizons @ High Ridge Park,Stamford,41.112074,-73.544099,daycare
Bright Minds,Stamford,41.056931,-73.536943,daycare
Brookdale Nursery School,Stamford,41.132998,-73.546691,daycare
Canaan Ridge School Inc,Stamford,41.157341,-73.596301,daycare
Chester Addison Child Development Center,Stamford,41.04149796,-73.55736881,daycare
Chester Addison Comm Ctr Study Zone Asp,Stamford,41.04190865,-73.55752497,daycare
Creative Care Child Care,Stamford,41.056591,-73.543131,daycare
Cte After School Academy,Stamford,41.041911,-73.536682,daycare
Davco Activities Program,Stamford,41.103861,-73.530852,daycare
First Presbyterian Church Nur Sch,Stamford,41.062801,-73.539701,daycare
First United Methodist Nursery School,Stamford,41.076981,-73.552581,daycare
Forest Street Child Development Center,Stamford,41.056931,-73.536943,daycare
Franklin Commons Child Development,Stamford,41.059441,-73.542212,daycare
Gan Yeladim Preschool,Stamford,41.097055,-73.54784,daycare
Glenbrook Comm Ctr Playschool,Stamford,41.070241,-73.518602,daycare
Gray Farms Nursery School,Stamford,41.08957,-73.534051,daycare
Hartco Activities Program,Stamford,41.057621,-73.547821,daycare
Italian Center Nursery School,Stamford,41.11522,-73.533951,daycare
J.c.c. Child Care Programs,Stamford,41.094061,-73.532012,daycare
Jeanne Hudgens Head Start Center,Stamford,41.059626,-73.520396,daycare
K.t. Murphy Community School,Stamford,41.04783,-73.510601,daycare
Lathon Wider Child Development Center,Stamford,41.044521,-73.538532,daycare
Lead Academy,Stamford,41.05246,-73.542221,daycare
Learning Center At Piper's Hill Inc.,Stamford,41.089051,-73.560802,daycare
Little Folks Playschool Llc,Stamford,41.114731,-73.530182,daycare
Long Ridge Child Development Center,Stamford,41.095361,-73.563491,daycare
Mark Of Excellence,Stamford,41.055221,-73.533712,daycare
Martin Luther King Preschool,Stamford,41.05127561,-73.54868627,daycare
Mother's Little Helper Ed. Day Care Inc.,Stamford,41.048086,-73.548831,daycare
Mrs. Bee's Learn And Play Llc,Stamford,41.08204,-73.521782,daycare
Newco Activities Program,Stamford,41.091237,-73.54057,daycare
Noah's Ark Nursery School,Stamford,41.059215,-73.527516,daycare
Northco Activities Program,Stamford,41.123971,-73.547631,daycare
Our Lady Of Grace Day Care Ctr,Stamford,41.074131,-73.517122,daycare
Palmers Hill Child Devlopment Center,Stamford,41.05918,-73.563072,daycare
Quamco Activities Program,Stamford,41.081797,-73.522989,daycare
Quintard Manor Head Start,Stamford,41.056151,-73.525812,daycare
Rogers Family Resource Child Care,Stamford,41.05327,-73.521442,daycare
Roxco Activities Program,Stamford,41.089078,-73.565009,daycare
Saint Ann's Nursery School,Stamford,41.058331,-73.551722,daycare
Shiny Little Stars,Stamford,41.08173,-73.533981,daycare
Springco Activities Program,Stamford,41.09684,-73.519931,daycare
Starkco Activities Program,Stamford,41.06668,-73.521701,daycare
Stillco Activities,Stamford,41.06879,-73.558081,daycare
Stillmeadow School Readiness Program,Stamford,41.06879,-73.558081,daycare
Ubs Child Development Center Redmen's Hall,Stamford,41.049499,-73.540755,daycare
Union Memorial Preschool,Stamford,41.071214,-73.521289,daycare
Villa Divino Amore Nursery School,Stamford,41.06478,-73.526451,daycare
Westco Activities Program,Stamford,41.057664,-73.55988,daycare
Westover School Readiness & Family,Stamford,41.057664,-73.55988,daycare
William Pitt Child Development Center,Stamford,41.063281,-73.527662,daycare
Yerwood Day Care Center,Stamford,41.04821344,-73.5506661,daycare
Yerwood Scholars After School Program,Stamford,41.048785,-73.551361,daycare
Emmanuel Nursery School,Weston,41.222891,-73.347502,daycare
Norfield Children's Center Inc.,Weston,41.202281,-73.377341,daycare
St. Francis Of Assisi Pre-school,Weston,41.200001,-73.383112,daycare
A Child's Place,Westport,41.127181,-73.345432,daycare
Children's Community Development Center,Westport,41.127181,-73.345432,daycare
Christ And Holy Trinity Church Day School,Westport,41.142393,-73.359796,daycare
Conservative Synagogue Preschool,Westport,41.133875,-73.343219,daycare
Earthplace Nursery School,Westport,41.144486,-73.379149,daycare
Learning Community Day Sch Inc,Westport,41.127181,-73.345432,daycare
Old Hill Children's Day School Llc,Westport,41.150281,-73.368611,daycare
Pumpkin Preschool Of Westport Inc.,Westport,41.137025,-73.367208,daycare
Saugatuck Nursery School Inc.,Westport,41.141261,-73.357481,daycare
St. Paul Christian School,Westport,41.170341,-73.351392,daycare
Temple Israel Early Childhood Center,Westport,41.177811,-73.355152,daycare
Three Four Open The Door Llc,Westport,41.166361,-73.381812,daycare
Westport Community Nursery School Inc,Westport,41.168421,-73.361231,daycare
Westport/weston Ymca Childcare,Westport,41.141448,-73.361134,daycare
Westport-weston Coop Nur Sch Inc,Westport,41.176288,-73.358369,daycare
Apple Blossom School And Family Center,Wilton,41.21737,-73.428452,daycare
Belden Hill Montessori Llc,Wilton,41.173071,-73.438662,daycare
Bright Horizons At Wilton,Wilton,41.192171,-73.432372,daycare
Children's Day School Of Wilton Inc.,Wilton,41.1975,-73.441452,daycare
Community Nursery School Of Wilton Inc.,Wilton,41.19334,-73.433272,daycare
Creative Play Llc,Wilton,41.262236,-73.437539,daycare
First Step Christian Day School,Wilton,41.176241,-73.436841,daycare
Helen Gander Friends Nursery School,Wilton,41.16575,-73.461121,daycare
Homespun Learning Environment Ltd,Wilton,41.21992,-73.427941,daycare
Leaps 'n Bounds Child Care Services Llc,Wilton,41.19735,-73.431432,daycare
Pandas Playmates,Wilton,41.211331,-73.432051,daycare
Town And Country Montessori School Inc.,Wilton,41.229361,-73.425551,daycare
Wilton Family Ymca Nursery School,Wilton,41.211331,-73.432051,daycare
Zion's Hill Preschool Program,Wilton,41.221061,-73.427201,daycare
Prince Of Peace Nursery School,Brookfield,41.45561,-73.399731,daycare
Noroton Presbyterian Nrsry Sch,Darien,41.06018,-73.488072,daycare
First Presbyterian Church Ns 2 Yr Old,Greenwich,41.03123192,-73.62802017,daycare
First Step Pre-school Inc. Ii,New fairfield,41.466543,-73.485289,daycare
New Fairfield Bright Beginnings Inc,New fairfield,41.456844,-73.477429,daycare
The Growing Tree Nursery School Llc,Ridgefield,41.283795,-73.495361,daycare
Little Munchkin Day Care Inc.,Sherman,41.57938,-73.495282,daycare
Bright Horizons Children's Center,Stamford,41.044324,-73.55137,daycare
Jewish Comm Ctr Sara Walker N.s. Temple Sinai,Stamford,41.123794,-73.535568,daycare
Rippowam Child Development Center,Stamford,41.052671,-73.56667,daycare
Falls Village Day Care Center,Falls village,41.96040364,-73.34802911,daycare
Puddle Jumpers Day Care Center Llc,Canaan,42.010006,-73.350342,daycare
Cornwall Child Center Inc.,West cornwall,41.876327,-73.340756,daycare
Kent Children's Center,Kent,41.730166,-73.472998,daycare
Kent Community Nursery School,Kent,41.724779,-73.477216,daycare
Kent School Early Learning Center Route,Kent,41.732612,-73.460607,daycare
Cynthia White Children's Center,Lakeville,41.946073,-73.444406,daycare
Extras,Salisbury,41.97067792,-73.43643373,daycare
Housatonic Day Care,Salisbury,41.97315165,-73.40911374,daycare
Little Scholar School,Lakeville,41.962607,-73.439397,daycare
Beginning Years Childrens Center,Sharon,41.879472,-73.4799,daycare
Sharon Day Care Center Inc. Po Box,Sharon,41.876291,-73.477088,daycare
Warren Church Community Childcare,Cornwall bridge,41.743965,-73.348804,daycare
Comm Org & Oper Latch Key (cool),Andover,41.72843934,-72.36873426,daycare
Indian Valley Ymca Ashford Saccp,Ashford,41.891035,-72.169711,daycare
Kidderbrook Montessori School,Ashford,41.916244,-72.211107,daycare
Apple Tree Children's Center,Avon,41.811381,-72.865081,daycare
Avon Congregational Church Nursery,Avon,41.809821,-72.831031,daycare
Christ Church Nursery School,Avon,41.7668,-72.858972,daycare
Churchery School,Avon,41.76568,-72.870521,daycare
Educational Playcare Ltd,Avon,41.819996,-72.829271,daycare
Educational Playcare Ltd.,Avon,41.818261,-72.829832,daycare
Pine Grove Fun Co.,Avon,41.77679,-72.854522,daycare
Pine Grove Nursery School,Avon,41.79025,-72.860291,daycare
Pooh's Corner Inc.,Avon,41.814111,-72.866761,daycare
The Farmington Academy Inc.,Bristol,41.81733324,-72.83385252,daycare
Wish Upon A Star,Avon,41.80026,-72.819222,daycare
Barkhamsted School Age Child Care,Pleasant valley,41.91110674,-72.98983552,daycare
Bethlehem Day Care Inc.,Bethlehem,41.65132,-73.202582,daycare
Bethel Day Care Center,Bloomfield,41.83702,-72.699342,daycare
Bloomfield Early Learning Center,Bloomfield,41.819827,-72.700115,daycare
Bloomfield Working Parents Child Care,Bloomfield,41.822607,-72.712846,daycare
Bright Horizons Family Solution @,Bloomfield,41.81058,-72.749096,daycare
Crt Eric D. Coleman E.c.e. Center,Bloomfield,41.82321,-72.696262,daycare
First Cong Church Nursery School,Bloomfield,41.831881,-72.736611,daycare
Kiddie Academy Of Bloomfield,Bloomfield,41.835066,-72.737459,daycare
Kids' Place Inc.,Bloomfield,41.818291,-72.724961,daycare
Bolton Cooperative Nursery Inc,Bolton,41.769511,-72.432939,daycare
Hans Christian Andersen Montessori,Bolton,41.77078,-72.435036,daycare
Yw Kidslink In Bolton,Bolton,41.776607,-72.442755,daycare
A Place To Grow Too,Bristol,41.648909,-72.907597,daycare
Bco/bristol Head Start,Bristol,41.658839,-72.922899,daycare
Bingham Fun Club,Bristol,41.681648,-72.949101,daycare
Bristol Boys & Girls Club Assoc./pleasant,Bristol,41.670136,-72.945637,daycare
Bristol Boys/girls Club Assn./laurel St.,Bristol,41.672835,-72.947801,daycare
Bristol Boys/girls Club Assoc./d. Beals,Bristol,41.683737,-72.903295,daycare
Bristol Head Start,Bristol,41.667801,-72.946321,daycare
Bristol Hospital Child Development Center,Bristol,41.680288,-72.947117,daycare
Bristol Preschool Child Care Center Inc.,Bristol,41.670421,-72.944394,daycare
Carrier Learning Center Llc,Bristol,41.697229,-72.904248,daycare
Century Nursery School,Bristol,41.677626,-72.940877,daycare
Christian Nursery School,Bristol,41.687981,-72.925252,daycare
Edgewood Fun Club,Bristol,41.70115,-72.922159,daycare
Family Center For Girls And Boys,Bristol,41.669099,-72.946793,daycare
Greene Hills Fun Club,Bristol,41.668886,-72.8968,daycare
Hubbell Fun Club,Bristol,41.677526,-72.908713,daycare
Ivy Drive Fun Club,Bristol,41.705841,-72.901161,daycare
Jennings Fun Club,Bristol,41.690202,-72.943555,daycare
Liberty Baptist Child Care Center,Bristol,41.704958,-72.937275,daycare
Mt. View Fun Club,Bristol,41.694424,-72.898706,daycare
Queen Of Apostles Montessori Education,Bristol,41.66439,-72.931869,daycare
South Side Fun Club,Bristol,41.666794,-72.936255,daycare
Stafford Fun Club,Bristol,41.689167,-72.91773,daycare
Whiz Kids Child Development Center,Bristol,41.653531,-72.897823,daycare
Carelot Children's Center Inc.- Brooklyn,Brooklyn,41.799577,-71.897149,daycare
Tvcca Brooklyn-killingly Early Childhood,Brooklyn,41.799415,-71.888024,daycare
Burlington Academy Of Learning,Burlington,41.768197,-72.961938,daycare
Burlington Academy Of Learning,Burlington,41.769352,-72.962008,daycare
Joni's Child Care And Pre-school,Burlington,41.77116,-72.971672,daycare
Kordas Korner Llc Preschool,Burlington,41.769021,-72.966741,daycare
Lake Garda Fun Club,Burlington,41.74252,-72.907461,daycare
Young Beginnings Children's Center Inc. I,Burlington,41.769084,-72.96633,daycare
Young Beginnings Children's Center Inc. Ii,Burlington,41.769031,-72.966921,daycare
Canaan Child Care Center,Canaan,42.033215,-73.330184,daycare
Canterbury Children's Academy Inc.,Canterbury,41.705218,-71.988186,daycare
Canton Community Nursery School,North canton,41.892481,-72.892802,daycare
Canton Community Nursery School,Canton,41.824441,-72.896852,daycare
Joni's Child Care,Canton,41.831841,-72.913142,daycare
Kindercare Learning Center,Canton,41.82448,-72.895822,daycare
Stepping Stones Education Center,Canton,41.832308,-72.917547,daycare
Trinity Episcopal Nursery School,Collinsville,41.811383,-72.923047,daycare
Carelot Children's Center,Chaplin,41.755045,-72.149675,daycare
Colebrook Child Care Llc,Colebrook,41.97124,-73.04744,daycare
Coventry Early Childhood Center Inc.,Coventry,41.768053,-72.300583,daycare
Apple Tree Children's Center,East granby,41.940515,-72.72482,daycare
Kindercare Learning Center,East granby,41.929171,-72.714332,daycare
Martin Group Day Care Home,East granby,41.953931,-72.772272,daycare
Ymca Allgrove School Fun Company,East granby,41.94418,-72.731782,daycare
Happy Hours Nursery & Day Care Center Inc.,East hartford,41.761251,-72.637791,daycare
Silva's Youth Of Today Learning Center Llc,East hartford,41.763671,-72.615121,daycare
South Congregational Church Nursery,East hartford,41.736991,-72.605101,daycare
Ymca Child Care Center,East hartford,41.736301,-72.615063,daycare
Ymca First Church,East hartford,41.7691,-72.643941,daycare
Ymca Larson Center,East hartford,41.77874,-72.592962,daycare
Ymca Magnet School,East hartford,41.735084,-72.590548,daycare
Ymca O'brien School,East hartford,41.792892,-72.610358,daycare
Ywca East Hartford Early Learning Center,East hartford,41.77628,-72.628362,daycare
Work And Play School,East windsor,41.89346,-72.604421,daycare
Grammy's Garden,East windsor,41.908701,-72.613157,daycare
Growing Tree Child Development Center,East windsor,41.89866,-72.581011,daycare
Children's Choice Learning Ctr Of,Ellington,41.90108,-72.460877,daycare
Ellington Christian Nursery School,Ellington,41.911384,-72.44913,daycare
Little Nursery School,Ellington,41.875668,-72.457753,daycare
Preschool Of The Arts Inc.,Ellington,41.904283,-72.469031,daycare
Scotty's Kiddy Korner Preschool &,Ellington,41.877921,-72.463825,daycare
Ymca Ellington Latch Key Program,Ellington,41.902638,-72.464405,daycare
Country Day School - Annex,Enfield,41.994851,-72.594291,daycare
Apple Tree Learning Center,Enfield,41.9981,-72.580996,daycare
Bright Horizons Family Solutions,Enfield,41.96931,-72.565132,daycare
Calvary Christian Childhood Center,Enfield,41.959966,-72.597917,daycare
Country Day School - Main Bldg.,Enfield,41.994851,-72.594291,daycare
Happy Time Preschool Llc,Enfield,41.960612,-72.575457,daycare
Hazardville Day Care Center Llc,Enfield,41.986171,-72.536071,daycare
Here Wee Grow,Enfield,41.98617,-72.537853,daycare
Kids Kare Child Care,Enfield,41.985581,-72.510052,daycare
Kids Kare Child Care & Learning Ctr Llc,Enfield,41.95939,-72.598641,daycare
Milestones Child Care & Learning Center,Enfield,41.999951,-72.594122,daycare
New England Preschool Academy Inc.,Enfield,41.960001,-72.574721,daycare
New England Preschool Academy Inc.,Enfield,42.003061,-72.592932,daycare
Our Redeemer Nursery School,Enfield,41.990216,-72.541202,daycare
This Is The Way..learning Center,Enfield,42.002071,-72.563941,daycare
Town Of Enfield Child Development Center,Enfield,41.996815,-72.597077,daycare
Town Of Enfield Child Development Center,Enfield,41.976952,-72.569405,daycare
Creative Child Center,Farmington,41.735778,-72.795135,daycare
Educational Playcare,Farmington,41.711948,-72.807718,daycare
Farmington Early Learning Center Inc.,Unionville,41.747353,-72.886986,daycare
Gateway Christian School,Farmington,41.724134,-72.796238,daycare
Joni's Child Care & Preschool,Farmington,41.748594,-72.854903,daycare
Kids Corner Nursery School,Farmington,41.746612,-72.854372,daycare
Kinder Care Learning Center #0279,Farmington,41.705734,-72.869186,daycare
Kindercare Learning Center Inc. #1791,Farmington,41.726302,-72.801035,daycare
Ladder Of Learning-discovery Center,Farmington,41.744469,-72.861239,daycare
Little Angels Childcare & Learning Center,Farmington,41.702402,-72.887678,daycare
The Village Nursery School,Farmington,41.721696,-72.829736,daycare
Tunxis Ctc Early Childhood Center,Farmington,41.706632,-72.878524,daycare
Valley Christian Day Care Inc,Unionville,41.759231,-72.888509,daycare
Buckingham Cooperative Nursery School,Glastonbury,41.711911,-72.522432,daycare
Creative Nursery School,Glastonbury,41.71795193,-72.55684709,daycare
Aloha Day Care & Learning Center,Glastonbury,41.71734324,-72.5688433,daycare
Ann L Gilnack Day Care Center,Glastonbury,41.71793597,-72.55443658,daycare
Bright Horizons Children's Centers,Glastonbury,41.71765698,-72.57474183,daycare
Bright Horizons Children's Centers,Glastonbury,41.71829,-72.624282,daycare
Cathy's Nursery School,Glastonbury,41.69627,-72.577792,daycare
Foundation For Learning,Glastonbury,41.72286,-72.609611,daycare
Freeman's Montessori School,South glastonbury,41.666431,-72.602892,daycare
Ghjcc Shirley Reaback Early Chldhd Ctr,Glastonbury,41.71883375,-72.56796802,daycare
Kindercare Learning Center,Glastonbury,41.719891,-72.602472,daycare
Kindercare Learning Center,Glastonbury,41.710401,-72.593041,daycare
Klub Kid Inc.,Glastonbury,41.717531,-72.623472,daycare
Ocp Super Kids Llc,Glastonbury,41.678941,-72.546942,daycare
Our Children's Place,Glastonbury,41.680951,-72.547692,daycare
Play Days Nursery School First Church,Glastonbury,41.708761,-72.608091,daycare
Pre School Playmates,Glastonbury,41.690281,-72.536672,daycare
South Glastonbury Cong Church Nursery,South glastonbury,41.667531,-72.603412,daycare
Stork Club Inc Child Development Ctrs,Glastonbury,41.707011,-72.597852,daycare
The Goddard School,Glastonbury,41.722531,-72.584951,daycare
Ymca Buttonball Sacd,Glastonbury,41.690101,-72.598081,daycare
Ymca Eastbury Sacd,Glastonbury,41.696281,-72.538012,daycare
Ymca Gideon Welles Sacd,Glastonbury,41.70042,-72.547905,daycare
Ymca Hebron Avenue Sacd,Glastonbury,41.717704,-72.560095,daycare
Ymca Hopewell Sacd,Glastonbury,41.680741,-72.552211,daycare
Ymca Kindergarten Program,Glastonbury,41.722692,-72.611439,daycare
Ymca Naubuc Sacd,Glastonbury,41.722661,-72.611282,daycare
Ymca South Church,South glastonbury,41.667531,-72.603412,daycare
Children's Place Christian Nursery School #5 Rt,Goshen,41.830362,-73.243139,daycare
Creative Learning Preschool & Day Care,Granby,41.95625,-72.794882,daycare
East West Karate After School,Granby,41.987811,-72.800401,daycare
Farmington Valley Ymca Wells Road Sacc,Granby,41.990381,-72.809062,daycare
Granby School Age Child Care,Granby,41.93171,-72.789742,daycare
Kid's Country,Granby,41.992369,-72.808914,daycare
Patchwork Schoolhouse Llc,Granby,41.960891,-72.790511,daycare
Small World Learning & Child Care Center,Granby,41.952829,-72.789442,daycare
Valley Pre-school Inc,Granby,41.95566,-72.831781,daycare
Allaya Day Care Llc,Hartford,41.75877815,-72.70905556,daycare
Ashar Child Development Center,Hartford,41.74252803,-72.68781809,daycare
Beacon Early Learning Center,Hartford,41.76621,-72.711391,daycare
Burns Early Learning Center,Hartford,41.761342,-72.690474,daycare
Capital Community College Laboratory,Hartford,41.770581,-72.643011,daycare
Capitol Child Development Center Inc.,Hartford,41.763334,-72.68666,daycare
Ccmc Kids Are Great Learning Center,Hartford,41.752016,-72.679893,daycare
Central Baptist Day Care,Hartford,41.76173989,-72.67504787,daycare
Clark Early Learning Center,Hartford,41.78688691,-72.67806541,daycare
Crayons And Numbers Day Care Services,Hartford,41.790053,-72.698392,daycare
Crt - Children's Learning Center,Hartford,41.76503,-72.697121,daycare
Crt E.c.e. Simpson Waverly Head Start,Hartford,41.795801,-72.681541,daycare
Crt Ece Heritage Early Learning Center,Hartford,41.786591,-72.683672,daycare
Crt Ece T.e.d. Jumoke Academy Head Start,Hartford,41.79144885,-72.69755399,daycare
Crt Head Start Fred D. Wish,Hartford,41.795081,-72.676721,daycare
Crt Thomas Ritter Center,Hartford,41.78117274,-72.67244221,daycare
Crt/ece Sheldon Oak Center,Hartford,41.755739,-72.665834,daycare
Crt-ece Grace Street Center,Hartford,41.75513443,-72.70802893,daycare
Douglas Street Early Care & Education,Hartford,41.736471,-72.685241,daycare
Elkey's Learning Experience,Hartford,41.73599,-72.701791,daycare
Fox Early Learning Center,Hartford,41.74635226,-72.68053145,daycare
Hartford Infant Toddler Early Lrng Ctr,Hartford,41.79717,-72.689968,daycare
Hartford Neighborhood Centers Inc.,Hartford,41.757365,-72.688011,daycare
Hyland Early Learning Center,Hartford,41.74040471,-72.69393772,daycare
Jes-us Kids/naylor,Hartford,41.730527,-72.674204,daycare
Job Corps Academy Child Development,Hartford,41.740368,-72.709491,daycare
Joni's Child Care,Hartford,41.76598135,-72.66888563,daycare
Jumpstart To Kindergarten,Hartford,41.732395,-72.712875,daycare
King Early Learning Center,Hartford,41.784592,-72.696584,daycare
Little Angel's Learning Center,Hartford,41.74324992,-72.69496306,daycare
Locust Early Care & Education Program,Hartford,41.74196,-72.666042,daycare
M.l.king Early Care & Education Prog,Hartford,41.78572486,-72.69678868,daycare
Milner Head Start Crt/ece,Hartford,41.782801,-72.688141,daycare
Paraiso Infantil,Hartford,41.75874766,-72.67979466,daycare
Parkville Early Learning Center,Hartford,41.75731469,-72.707975,daycare
Ram School Age Child Care Inc. (ramsacc),Hartford,41.79566,-72.701432,daycare
Richard A. Battles Day Care Center,Hartford,41.78353,-72.674039,daycare
Saint Francis Child Care Center-infant &,Hartford,41.776217,-72.698862,daycare
Saint Francis Child Care,Hartford,41.776137,-72.698896,daycare
Saint Francis Child Care Center-preschool,Hartford,41.775772,-72.699049,daycare
Salvation Army Learning Center,Hartford,41.78810654,-72.67833895,daycare
Ss Cyril & Methodius School Readiness,Hartford,41.755562,-72.673408,daycare
The School For Young Children On Asylum,Hartford,41.769391,-72.690961,daycare
Trinity College Comm. Child Center-campus,Hartford,41.750373,-72.692966,daycare
Trinity College Comm. Child Center-life,Hartford,41.750373,-72.692966,daycare
Village Child Development Center,Hartford,41.785079,-72.70872,daycare
Warburton Day Care Center,Hartford,41.742741,-72.709091,daycare
Waverly Early Learning Center,Hartford,41.795801,-72.681541,daycare
Women's League Inc Child Development,Hartford,41.777697,-72.676461,daycare
Ymca Child Day Care Ctr @ Annie Fisher,Hartford,41.79193896,-72.70780334,daycare
Ywca Growing Tree-hartford Time Out For,Hartford,41.773789,-72.686986,daycare
Joni's Learning Center,Harwinton,41.767272,-73.084389,daycare
Little Britches Day Care Llc,Harwinton,41.769025,-73.074589,daycare
Kindercare Learning Center,Hebron,41.658375,-72.360391,daycare
Tae San Youth Program,Hebron,41.66081,-72.35587,daycare
Carelot Children's Center Inc.-killingly,Danielson,41.816131,-71.883211,daycare
Castle Kids Preschool & Child Care Llc,Dayville,41.832751,-71.875482,daycare
Eastconn Killingly Early Head Start,Danielson,41.820038,-71.88349,daycare
Eastconn Killingly Head Start,Dayville,41.85064,-71.894911,daycare
Educare Preschool,Rogers,41.842463,-71.910109,daycare
Killingly B/a Sch Killingly Central,Dayville,41.84992,-71.885331,daycare
Stepping Stones Early Learning Center,Danielson,41.825368,-71.89371,daycare
Red Sneakers Of Lebanon Llc,Lebanon,41.683691,-72.239151,daycare
Kidsperience Llc Daycare& Preschool Of,Litchfield,41.745779,-73.18865,daycare
Litchfield County Head Start,Litchfield,41.762281,-73.197926,daycare
Room To Grow,Litchfield,41.740354,-73.215215,daycare
School On The Green,Litchfield,41.748399,-73.187585,daycare
Abc Day Care,Manchester,41.764279,-72.536376,daycare
Birch Mountain Day School Inc,Manchester,41.750771,-72.468582,daycare
Center Nursery School,Manchester,41.775619,-72.522206,daycare
Chestnut Hill Preschool,Manchester,41.772601,-72.524011,daycare
Concordia Nursery School,Manchester,41.77946,-72.502852,daycare
Kindercare Learning Cntr Inc,Manchester,41.76033,-72.498642,daycare
Little Lambs Preschool,Manchester,41.800845,-72.578529,daycare
Manchester E L C Before & After,Manchester,41.76664,-72.517342,daycare
Manchester Early Learning Center Before &,Manchester,41.76664,-72.517342,daycare
Manchester Early Learning Center Inc.,Manchester,41.767351,-72.548152,daycare
Manchester Early Learning Center Inc.,Manchester,41.771241,-72.516092,daycare
Manchester Early Learning Center Inc.,Manchester,41.772215,-72.494407,daycare
Nike Tykes Pre-school,Manchester,41.747338,-72.533733,daycare
Sonshine Day Care Center,Manchester,41.759066,-72.535699,daycare
The Children's Place,Manchester,41.807951,-72.526362,daycare
The Learning Center,Manchester,41.780901,-72.547222,daycare
Time Out For Parents,Manchester,41.775619,-72.522206,daycare
Tutor Time Of Manchester,Manchester,41.79874,-72.550961,daycare
Wee Care Day Care,Manchester,41.795681,-72.543952,daycare
Ywca Creative Nursery School,Manchester,41.79522,-72.523062,daycare
Ywkidslink At Bowers,Manchester,41.788651,-72.511332,daycare
Ywkidslink At Buckley School,Manchester,41.79302,-72.492571,daycare
Ywkidslink At Keeney School,Manchester,41.7553,-72.541261,daycare
Ywkidslink At Martin School,Manchester,41.75262,-72.511122,daycare
Ywkidslink At Waddell School,Manchester,41.783231,-72.535272,daycare
Community Children's Center,Storrs mansfield,41.771689,-72.250992,daycare
Mansfield Discovery Depot,Storrs mansfield,41.79939,-72.303651,daycare
Mount Hope Montessori School,Mansfield center,41.760168,-72.187876,daycare
Saccne Program @ Annie Vinton School,Mansfield center,41.745081,-72.260692,daycare
Uconn Child Development Laboratories,Storrs mansfield,41.803082,-72.246155,daycare
The Kids Club,Marlborough,41.653533,-72.481421,daycare
Little Brick School L.l.c.,Morris,41.683477,-73.200146,daycare
Co-op Nursery School Of New Britain,New britain,41.65958,-72.801592,daycare
Early Learning Program Inc.,New britain,41.687521,-72.760441,daycare
Hospital For Special Care Child Care Ctr,New britain,41.687801,-72.800991,daycare
Hospital Of Central Ct Child Develop.,New britain,41.659864,-72.78775,daycare
Jefferson Head Start/school Readiness,New britain,41.69646,-72.799512,daycare
New Britain-berlin Ymca-on Track Child,New britain,41.66891,-72.785411,daycare
North/oak Community Center,New britain,41.675054,-72.775002,daycare
Smalley Head Start/school Readiness,New britain,41.67762,-72.771541,daycare
South Church Day Care Center - Hra,New britain,41.66527,-72.781142,daycare
Steele Street Preschool Ywca Of New,New britain,41.65864,-72.806001,daycare
Ywca Of New Britain Childcare Center,New britain,41.66393,-72.781202,daycare
Education Connection - Antolini School,New hartford,41.8284,-73.016211,daycare
Giant Steps Day Care,Pine meadow,41.736553,-73.199298,daycare
Pleasant Valley Children's Center Inc.,New hartford,41.8791,-72.981052,daycare
St Paul's Community Nursery School,New hartford,41.88146,-72.976962,daycare
Bright Horizons Of Newington - Dot Bldg,Newington,41.673064,-72.715807,daycare
Creative Playtime Preschool Program,Newington,41.69767,-72.723642,daycare
Kidco Child Care Center,Newington,41.693146,-72.70583,daycare
Kidco Day Care And Learning Center,Newington,41.693841,-72.705592,daycare
Kids Count Learning Center Llc,Newington,41.71926,-72.742792,daycare
Kindercare Learning Center #301383,Newington,41.667051,-72.722281,daycare
Necci @ Anna Reynolds,Newington,41.71599,-72.746562,daycare
Necci @ Elizabeth Green,Newington,41.714234,-72.72271,daycare
Necci @ John Paterson,Newington,41.670705,-72.738662,daycare
Necci @ Ruth Chaffee,Newington,41.682451,-72.716471,daycare
Newington Un. Methodist Ch. Nursery,Newington,41.67398,-72.739071,daycare
Southfield Children's Center Inc.,Newington,41.663465,-72.730094,daycare
Super Club For Kids,Newington,41.694231,-72.705271,daycare
Tiny Tot Day Care Llc,Newington,41.71571,-72.727832,daycare
Norfolk Child Care Center,Norfolk,41.988843,-73.185917,daycare
Eastconn Head Start @ Shepard Hill Elem,Plainfield,41.734071,-71.907742,daycare
Kid & Kaboodle Child Care Inc.,Plainfield,41.662891,-71.904801,daycare
Plainfield Recreation Dept. Day Care,Plainfield,41.68797,-71.913362,daycare
Child Day Care Ctr @ Wheeler Regional,Plainville,41.68206,-72.854731,daycare
Great Beginnings,Plainville,41.678186,-72.846895,daycare
Penny's Playground Of Learning,Plainville,41.672781,-72.861232,daycare
Plainville Day Care Center Inc,Plainville,41.670023,-72.873996,daycare
Wheeler Regional Family Ymca Infant,Plainville,41.681121,-72.855191,daycare
Wheeler Regional Family Ymca @ Wheeler,Plainville,41.684341,-72.852211,daycare
Wheeler Ymca Toffolon School Sacd,Plainville,41.684901,-72.887721,daycare
Fisher Elementary B/a School Program,Terryville,41.682459,-73.006011,daycare
T.p.d.c.c.inc. Plymouth Ctr. B/a School Pgm.,Plymouth,41.679058,-73.053024,daycare
Terry Nursery School Inc.,Terryville,41.678826,-73.012462,daycare
Children At Rectory,Pomfret,41.893391,-71.962162,daycare
Children's Learning Garden Llc,Putnam,41.916607,-71.905969,daycare
Country Kids Cc & Elc Ctr Llc Of The Quiet,Putnam,41.906646,-71.904983,daycare
Eastconn Putnam Head Start,Putnam,41.923267,-71.918198,daycare
Kiddie Korner Daycare & Early Learning Ctr,Putnam,41.924407,-71.870746,daycare
Putnam Preschool And Child Care Llc,Putnam,41.926551,-71.866048,daycare
Putnam School Readiness Child Care,Putnam,41.923267,-71.918198,daycare
Ct Kidz By The Hour Llc,Rocky hill,41.659845,-72.684113,daycare
Kids Korner,Rocky hill,41.666934,-72.637501,daycare
Kid's Lane Day Care & Learning Center,Rocky hill,41.660751,-72.680094,daycare
Kindercare Learning Center #301661,Rocky hill,41.661234,-72.678766,daycare
Rocky Hill Congregational Coop Nursery,Rocky hill,41.665996,-72.638322,daycare
Stork Club Inc,Rocky hill,41.654997,-72.67976,daycare
Ywkidslink Stevens School,Rocky hill,41.668895,-72.657339,daycare
Children's Clubhouse Llc,Weatogue,41.835793,-72.824998,daycare
Educational Playcare,Simsbury,41.896611,-72.785881,daycare
Ghjcc Early Chi Ldhood Center/fvjc,Simsbury,41.86522,-72.821611,daycare
Hopmeadow Nursery School Inc,Simsbury,41.87066,-72.804052,daycare
Little Folks Corner,Simsbury,41.857251,-72.831801,daycare
Little Lambs And Ivy Child Care Center,Simsbury,41.875871,-72.801442,daycare
Miss Lisa's Montessori School,Simsbury,41.861488,-72.80998,daycare
The Children's Center,Simsbury,41.853827,-72.833911,daycare
Child's Place,Somers,41.980157,-72.446977,daycare
Room To Grow Child Care Llc,Somers,41.980157,-72.446977,daycare
Tara's Childcare,Somers,41.963593,-72.455471,daycare
The Kids Academy,Somers,41.98377,-72.490567,daycare
Children's Corner Nursery School,South windsor,41.826831,-72.553252,daycare
Imagination Station,South windsor,41.823011,-72.557732,daycare
Kindercare Learning Center,South windsor,41.80885,-72.601852,daycare
Mother Goose Children's Center,South windsor,41.826863,-72.554886,daycare
Mother Goose Children's Center Inc.,South windsor,41.826861,-72.555257,daycare
Mother Goose Children's Ctr. Inc.,South windsor,41.826861,-72.55534,daycare
Our Savior Preschool & Child Care,South windsor,41.851221,-72.557172,daycare
Rising Stars Child Care Llc,South windsor,41.832873,-72.55927,daycare
South Windsor Child Development Center,South windsor,41.836112,-72.556857,daycare
The Learning Center,South windsor,41.825751,-72.578181,daycare
The Learning Center Inc,South windsor,41.82946,-72.579291,daycare
Cheshire Country Day School,Milldale,41.761694,-72.719119,daycare
Penny's Playground Of Discovery,Milldale,41.761694,-72.719119,daycare
Ymca Sacc @ Thalberg School,Southington,41.648455,-72.85608,daycare
Red Balloon,Stafford springs,41.951939,-72.309682,daycare
Jordan Preschool And Child Care,Sterling,41.764271,-71.822171,daycare
Pj's Playground,Sterling,41.708851,-71.830482,daycare
Bright Horizons Family Solutions,Suffield,41.98373,-72.659061,daycare
Conway's Kiddie Kollege,Suffield,41.996691,-72.639712,daycare
Second Baptist Preschool,Suffield,41.996651,-72.645741,daycare
Suffield Cooperative School Inc,Suffield,41.98345,-72.651396,daycare
Ledgewood Too Inc.,Thomaston,41.673704,-73.072598,daycare
Play And Learn Child Development Center,Thomaston,41.675107,-73.071785,daycare
Building Blocks Child Care & Preschool,Thompson,41.983559,-71.901119,daycare
Country Kids Early Learning Center,North grosvenordale,41.963464,-71.887409,daycare
First Steps Early Learning Center Llc,North grosvenordale,41.982552,-71.897331,daycare
Scribbles Kid Care Llc,Thompson,42.022117,-71.844374,daycare
Children's Choice Learning Center Of,Tolland,41.867532,-72.414559,daycare
Children's World Day Care & Nursery Inc.,Tolland,41.85167,-72.331962,daycare
Children's World Day Care And Nursery Inc,Tolland,41.85167,-72.331962,daycare
Cuddles And Kisses Child Care Corp.,Tolland,41.86554,-72.418431,daycare
Kids Academy Child Care Center,Tolland,41.86062,-72.348102,daycare
Preschool Of The Arts - Tolland,Tolland,41.874,-72.372781,daycare
Tolland Cooperative Preschool Inc.,Tolland,41.871323,-72.368939,daycare
Tolland Tykes Preschool Program,Tolland,41.870061,-72.367952,daycare
Brooker Memorial Child Care & Learning,Torrington,41.797853,-73.123778,daycare
Greater Torrington Family Development,Torrington,41.809329,-73.108113,daycare
Happy Days Home Care Inc.,Torrington,41.83215,-73.08977,daycare
Hilltop Christian Nursery School,Torrington,41.820075,-73.093301,daycare
Kinder Care Learning Center,Torrington,41.839876,-73.0997,daycare
Litchfield County Head Start-forest Court,Torrington,41.809992,-73.127957,daycare
Northwest Ct Ymca Child Care,Torrington,41.802985,-73.12295,daycare
Shookie Recreation Llc,Torrington,41.793823,-73.113732,daycare
Torrington Child Care Center Inc.,Torrington,41.824089,-73.101588,daycare
Torrington Preschool,Torrington,41.81179,-73.129944,daycare
Torrington School Age Child Care Program,Torrington,41.809507,-73.09371,daycare
Torrington School Age Programs,Torrington,41.803906,-73.12238,daycare
Academy Of Arts & Learning Child Care,Vernon rockville,41.838581,-72.490591,daycare
Apple Tree Learning Center Inc.,Vernon rockville,41.821035,-72.500736,daycare
Community Nursery School Of Talcottville,Vernon rockville,41.820189,-72.498366,daycare
Eastconn Vernon Head Start At Skinner Rd,Vernon rockville,41.855789,-72.492659,daycare
Grove Street Corner Preschool,Vernon rockville,41.860745,-72.433782,daycare
Hockanum Valley Child Day Care,Vernon rockville,41.838099,-72.466455,daycare
Indian Valley Ymca Lake St Latchkey Lake St Elem Sch,Vernon rockville,41.81107,-72.469311,daycare
Indian Valley Ymca Preschool,Vernon rockville,41.828143,-72.485845,daycare
Kids Academy Child Care Center,Vernon rockville,41.851869,-72.478349,daycare
Potter's House,Vernon rockville,41.866497,-72.446571,daycare
Ymca Northeast School Latch Key,Vernon rockville,41.861467,-72.43164,daycare
Kangaroo's Korner Inc. Day Care,Watertown,41.66088,-73.159842,daycare
Lollipop Tree Nursery School,W hartford,41.797971,-72.735901,daycare
Beatrice Fox Auerbach Early Child Ctr,W hartford,41.801096,-72.724933,daycare
Bethany Lutheran Nursery School,W hartford,41.75584482,-72.74352126,daycare
Early Learning Nursery School,W hartford,41.783771,-72.760712,daycare
First Church Nursery School,W hartford,41.76151491,-72.74137165,daycare
Morley Extended Day Careinc.,W hartford,41.76951,-72.731502,daycare
Noah's Ark Cdcc Cong Beth Israel,W hartford,41.76543,-72.719252,daycare
Our Children's Center,W hartford,41.768181,-72.742831,daycare
Preschool Of West Hartfordinc.,W hartford,41.75088711,-72.75321204,daycare
Quakerlane Cooperative Nursery School,W hartford,41.75971,-72.729322,daycare
St Joseph College School For Young,W hartford,41.7811,-72.724431,daycare
St. Agnes Home Inc. Family Center Day Care,W hartford,41.735536,-72.737381,daycare
The Children's Museum Preschool,W hartford,41.7617,-72.737912,daycare
Through The Eyes Of A Child,W hartford,41.764431,-72.734172,daycare
West Htfd Ext Experience-braeburn School Braeburn Sch,W hartford,41.762751,-72.761311,daycare
West Hartford Extended Experience,W hartford,41.75138,-72.725532,daycare
West Hartford Extended Experience,W hartford,41.743268,-72.720702,daycare
West Hartford United Methodist Nursery,W hartford,41.730301,-72.752212,daycare
West Htfd Ext Exp Ii-aiken School,W hartford,41.799961,-72.746411,daycare
Whee Ii @ Norfeldt School,W hartford,41.79413,-72.761202,daycare
Whiting Lane Extended Day Care,W hartford,41.76504,-72.724615,daycare
Wynkin Blinkin And Nod,W hartford,41.75539,-72.731451,daycare
Yw Kidslink At Duffy School,W hartford,41.7473537,-72.75279119,daycare
Ywca Child Care - Elmwood Center,W hartford,41.732151,-72.730482,daycare
Ywkidslink At Bugbee School,W hartford,41.778979,-72.754131,daycare
Ywkidslink At Webster Hill School,W hartford,41.74366162,-72.74178519,daycare
Ywkidslink At Wolcott School,W hartford,41.725841,-72.748235,daycare
Bright Beginnings Preschool,Wethersfield,41.68555,-72.664011,daycare
First Church Of Christ Nursery School,Wethersfield,41.713388,-72.65253,daycare
Pride And Joy Learning Academy Llc,Wethersfield,41.714101,-72.664202,daycare
Rainbow Center For Children And Families,Wethersfield,41.709511,-72.656051,daycare
Tlc Preschool Program,Wethersfield,41.716661,-72.676032,daycare
Wethersfield United Meth Church Nursery,Wethersfield,41.69462,-72.666142,daycare
Ymca School's Out @ Highcrest,Wethersfield,41.678931,-72.682672,daycare
Ymca School's Out At Emerson-willliams,Wethersfield,41.702171,-72.679891,daycare
Ymca School's Out At Hanmer,Wethersfield,41.715512,-72.658685,daycare
Ywkidslink @ Charles Wright School,Wethersfield,41.716231,-72.668212,daycare
Kids Kingdom,Willington,41.880511,-72.301612,daycare
Saccne Program @ Hall Memorial School,Willington,41.851411,-72.301772,daycare
Child Development Center - (nwcc),Winsted,41.925304,-73.061252,daycare
First Church Children's Discovery Center,Winsted,41.923769,-73.060087,daycare
Smile Face Nursery - Day Care,Winsted,41.952038,-73.055578,daycare
Winsted Area Child Care Center Inc.,Winsted,41.922809,-73.076705,daycare
Winsted Area Child Care Center Inc.,Winsted,41.924115,-73.076185,daycare
Winsted Branch Ymca Child Care Center,Winsted,41.92099,-73.072987,daycare
Child & Family Development Resource Center,Willimantic,41.715099,-72.218705,daycare
Little Lights Christian Learning Center,Willimantic,41.707567,-72.211412,daycare
New Heights Child Development Program,Willimantic,41.721433,-72.192798,daycare
Windham Early Childhood Center,North windham,41.744326,-72.171104,daycare
Windham/willimantic Child Care & Family,Willimantic,41.715866,-72.225813,daycare
Bright Horizons Children's Center,Windsor,41.879142,-72.704514,daycare
Building Blocks Of Windsor,Windsor,41.866221,-72.68599,daycare
Crt Milo Peck Windsor Head Start Center,Windsor,41.857588,-72.637536,daycare
Educational Playcare,Windsor,41.874925,-72.685848,daycare
Educational Playcare,Windsor,41.874925,-72.685848,daycare
First Church Early Learning Center,Windsor,41.857749,-72.637535,daycare
Poquonock Playschool,Windsor,41.90589,-72.679181,daycare
Trinity Christian School,Windsor,41.839015,-72.661163,daycare
Wilson Nursery School,Windsor,41.824478,-72.656453,daycare
Windsor Discovery Center & Montessori,Windsor,41.857588,-72.637536,daycare
Windsor Learning Center Inc.,Windsor,41.851704,-72.660049,daycare
Joni's Child Care And Preschool,Windsor locks,41.93221,-72.666292,daycare
New England Preschool Academy Inc.,Windsor locks,41.932971,-72.663522,daycare
Imagination Station Day Care Llc,Woodstock,41.932056,-71.932731,daycare
Northwood Child Care,Woodstock,41.94344,-71.962391,daycare
Bristol Preschool Child Care Centerinc.,Bristol,41.676465,-72.950613,daycare
Sunny Days Inc.,Collinsville,41.811383,-72.923047,daycare
Discovery Zone,Columbia,41.719701,-72.274562,daycare
Lighthouse Christian Nursery School,Columbia,41.722507,-72.291183,daycare
Coventry Kids Center,Coventry,41.775158,-72.307902,daycare
East Granby Congregational Nursery,East granby,41.942741,-72.725051,daycare
Little House In The Country Child Care Llc,Ellington,41.878547,-72.463758,daycare
Lego Creative Child Care Center,Enfield,42.018382,-72.514295,daycare
Little Punkin' Patch Llc,Enfield,41.989872,-72.568338,daycare
Reach For The Stars Learning Center Llc,North franklin,41.643951,-72.161172,daycare
Mansfield T S/1199 Willow House,Mansfield depot,41.801081,-72.241059,daycare
Saccne Program @ Southeast Elementary,Mansfield center,41.77352,-72.192962,daycare
Storrs Community Nursery School,Storrs mansfield,41.811351,-72.250932,daycare
Bakerville Community Nursery School,New hartford,41.83139,-73.026791,daycare
Eastconn Plainfield Head Start,Moosup,41.6995,-71.8513,daycare
A Place To Grow - Weatogue,Weatogue,41.830311,-72.821761,daycare
Pierce Road Learning Center,South windsor,41.82955,-72.565431,daycare
Angels 4 Kidz Learning Center,Thomaston,41.673914,-73.072893,daycare
Tolland Baptist Preschool,Tolland,41.86426,-72.369321,daycare
Tolland Green Learnng Center,Tolland,41.871323,-72.368939,daycare
Trinity Cooperative Pre-school,Vernon rockville,41.847512,-72.465831,daycare
Willington Nursery Co-op Inc,Willington,41.876854,-72.268989,daycare
Northwood Child Care Center L.l.c.,Woodstock,41.986626,-71.996558,daycare
Abc Learning Tree Center,,41.33075481,-73.04001446,daycare
Aca School Age Child Care,Ansonia,41.352454,-73.083612,daycare
Julia Day Nursery And Kindergarten,Ansonia,41.34048896,-73.07391602,daycare
Kindercare Learning Center,Ansonia,41.33946649,-73.0915439,daycare
Lower Naugatuck Valley School E C Ed,Ansonia,41.338521,-73.083712,daycare
Valley Ymca Child Care - Ansonia,Ansonia,41.34716697,-73.07848924,daycare
Valley Ymca Child Care Center,Ansonia,41.336383,-73.085187,daycare
Valley Ymca School Age Child Care-ansonia,Ansonia,41.33620166,-73.05153967,daycare
United Day School Before & After School,Beacon falls,41.44693,-73.060901,daycare
United Day School Inc,Beacon falls,41.44638,-73.063302,daycare
Berlin/kensington Ymca Child Care,Kensington,41.6341992,-72.76750976,daycare
Creative Kids Learning Center,Kensington,41.61160323,-72.74738785,daycare
Discovery Center Preschool Inc.,Kensington,41.63208,-72.777167,daycare
Griswold Kids Care,Kensington,41.63743817,-72.78479863,daycare
Hubbard Kids Care,East berlin,41.61497978,-72.72062651,daycare
Kensington Nursery School,Kensington,41.62350016,-72.78381415,daycare
Kindercare Learning Center Inc. #1344,Kensington,41.63517826,-72.78921566,daycare
Little Blessings Preschool Inc.,Kensington,41.61794347,-72.7288835,daycare
Little Einsteins Day Care Llc,East berlin,41.61692461,-72.72002791,daycare
Willard Kids Care,Kensington,41.61614434,-72.75615643,daycare
Bethany Nursery Group Inc,Bethany,41.4268429,-72.99728104,daycare
Bunny Village Learning Center Llc,Bethany,41.3946729,-73.00367804,daycare
Country Kids Child Care And Preschool,Bethany,41.43729731,-72.99111343,daycare
Kids Klub,Bethany,41.4235969,-73.00217104,daycare
Surreybrook Preschool & Child Dev. Ctr,Bethany,41.4082259,-73.00309804,daycare
Kids First,Bethlehem,41.630001,-73.208577,daycare
Branford Early Learning Center Inc.,Branford,41.273186,-72.782605,daycare
Branford Family Resource Ctr Child Care,Branford,41.268666,-72.806752,daycare
Child Development Center,Branford,41.281464,-72.811507,daycare
Duck Pond Day Care,Branford,41.27665,-72.845521,daycare
First Year Daycare Center,Branford,41.278648,-72.818117,daycare
Kids Towne Day Care,Branford,41.290806,-72.819374,daycare
Learn & Play Preschool Child Care Center,Branford,41.308731,-72.749042,daycare
Pine Orchard Nursery School,Branford,41.26542,-72.802752,daycare
Playcare At Branford Hills Health Care Ctr,Branford,41.264791,-72.847212,daycare
Precious Cargo Daycare & Learning Center,Branford,41.29126,-72.795502,daycare
Shoreline School Of Montessori Llc,Branford,41.303101,-72.757492,daycare
Tabor Christian Community Preschool,Branford,41.273247,-72.799798,daycare
Abcd @ Bullard Havens Technical School,Bridgeport,41.200201,-73.164991,daycare
Abcd Inner City Children's Daycare Center,Bridgeport,41.175798,-73.199186,daycare
Abcd Inc. @ George Pipkin Head Start,Bridgeport,41.18371609,-73.17929392,daycare
Abcd Inc. @ Trumbull Gardens Child Care,Bridgeport,41.21921,-73.199777,daycare
Abcd Inc. @ West End Child Care Center,Bridgeport,41.162618,-73.214739,daycare
Abcd/ella Jackson Childcare Center,Bridgeport,41.17846,-73.170354,daycare
Black Rock Preschool & Childcare Center,Bridgeport,41.158395,-73.230281,daycare
Bridgeport Ymca/kolbe Educational Center,Bridgeport,41.183905,-73.182875,daycare
Bulls Head Hollow Head Start,Bridgeport,41.18324,-73.196217,daycare
Busy Beaver Extended Day Program Inc.,Bridgeport,41.215761,-73.213968,daycare
Care Around The Clock,Bridgeport,41.174415,-73.196702,daycare
Cesar Batalia Child Care Center,Bridgeport,41.18349,-73.202058,daycare
Child-port Day Care Center,Bridgeport,41.191851,-73.163225,daycare
Child's World,Bridgeport,41.173832,-73.208314,daycare
Congregation B'nai Israel Nursery School,Bridgeport,41.194809,-73.216602,daycare
Donna's Little Doves Child Development,Bridgeport,41.168888,-73.190345,daycare
Early Childhood Laboratory School,Bridgeport,41.174806,-73.191847,daycare
Faith House Child And Youth Development,Bridgeport,41.179671,-73.2062,daycare
Grandview Day Care,Bridgeport,41.220532,-73.192502,daycare
Heavenly Blessings Christian Academy,Bridgeport,41.202189,-73.179479,daycare
Inner City Childrens Ctr Bassick-high,Bridgeport,41.173931,-73.206893,daycare
Jaime A. Hulley Child Care Center,Bridgeport,41.169791,-73.189333,daycare
Jewish Center For Comm Service Early Chd,Bridgeport,41.21235664,-73.23099778,daycare
Kingdom's Little Ones,Bridgeport,41.178581,-73.165293,daycare
Kingdom's Little Ones Academy,Bridgeport,41.178407,-73.165834,daycare
Lil` Blessings Academy Day Care Inc,Bridgeport,41.19256,-73.216446,daycare
Little Lamb Dcc Household Of Faith,Bridgeport,41.187425,-73.175792,daycare
Lucille Johnson Child Care Center,Bridgeport,41.174625,-73.20026,daycare
Mary Immaculate Day Care Center,Bridgeport,41.163088,-73.215828,daycare
Precious Memories Early Childhood,Bridgeport,41.2105774,-73.20891854,daycare
Precious Memories Early Childhood Lrng,Bridgeport,41.174626,-73.199087,daycare
St. Mark's Day Care,Bridgeport,41.17395776,-73.16775171,daycare
St. Paul's Child Development Center,Bridgeport,41.202167,-73.1841,daycare
Sugar Plum Nursery School,Bridgeport,41.182334,-73.214851,daycare
Tender Love Child Care Center,Bridgeport,41.174181,-73.204066,daycare
Ymca P.a.l.s. V Day Care,Bridgeport,41.173215,-73.197254,daycare
A Dream Come True Learning Center,Cheshire,41.503181,-72.900742,daycare
Boulder Knoll Montessori School,Cheshire,41.47119,-72.881182,daycare
Changing Seasons Early Learning Ctr,Cheshire,41.49685,-72.900742,daycare
Chapman Y - Latch Key Center,Cheshire,41.5197,-72.895722,daycare
Cheshire Nursery School,Cheshire,41.478331,-72.902222,daycare
Cheshire Ymca Doolittle School,Cheshire,41.499811,-72.921722,daycare
Children's Creative Learning Center Inc.,Cheshire,41.497657,-72.900517,daycare
First Cong Church Day Care & Nursery,Cheshire,41.498106,-72.902714,daycare
Happy Time School Llc,Cheshire,41.499653,-72.89421,daycare
Highland Latch Key/cheshire Ymca,Cheshire,41.510861,-72.899291,daycare
Jack And Jill Day Care Center,Cheshire,41.53783,-72.903912,daycare
Kindercare Learning Center,Cheshire,41.54819,-72.958542,daycare
Little Cheurbs Christian Preschool,Cheshire,41.51096,-72.917921,daycare
Little Scholars Early Education Of,Cheshire,41.542043,-72.892657,daycare
Norton/cheshire Southington School,Cheshire,41.4781,-72.918002,daycare
Scooter School Inc.,Cheshire,41.478851,-72.908562,daycare
Chester Child Center,Chester,41.401551,-72.453631,daycare
Jack And Jill Coop Nursery School,Chester,41.401551,-72.453631,daycare
Valley-shore Ymca School Age Program,Chester,41.40489,-72.458282,daycare
Clinton Child Care,Clinton,41.27608,-72.513232,daycare
Just For Kids,Clinton,41.30612,-72.526121,daycare
Maple Avenue Nursery School,Clinton,41.27795,-72.535812,daycare
Maple Avenue Nursery School Inc.,Clinton,41.27795,-72.535812,daycare
Red Barn Children's Center Inc.,Clinton,41.329431,-72.520051,daycare
Valley Shore Ymca Sap @ Pierson School,Clinton,41.27745,-72.521081,daycare
Apple Tree Learning Center,Colchester,41.57366,-72.317632,daycare
C.a.s.t.l.e. Inc.,Colchester,41.57453,-72.316012,daycare
Colchester Cooperative Nursery School,Colchester,41.57366,-72.33225,daycare
Colchester K.i.d.s.,Colchester,41.575471,-72.324912,daycare
Curley's Kids Care,Colchester,41.57882,-72.346291,daycare
Enchanted Jungle Learning Center Llc,Colchester,41.574481,-72.331011,daycare
Kid Synergy Llc,Colchester,41.579891,-72.336472,daycare
The Mega Center,Colchester,41.577061,-72.327601,daycare
Bethany Lutheran Nursery School,Cromwell,41.621691,-72.663351,daycare
Kids Korner @ Edna C. Stevens School,Cromwell,41.620185,-72.658944,daycare
Kids Korner @ Woodside Intermediate,Cromwell,41.62388,-72.660502,daycare
Kindercare Learning Center Inc. #1627,Cromwell,41.6069,-72.711722,daycare
Northwest Children's Center Inc,Cromwell,41.60687,-72.696922,daycare
Playmates Children's Center Inc.,Cromwell,41.59819,-72.650862,daycare
Roberge Early Learning Center,Cromwell,41.60183,-72.692442,daycare
Wee Ones Child Care Center,Cromwell,41.627341,-72.676552,daycare
Chester-deep River-essex Coop Nursery,Deep river,41.387024,-72.434475,daycare
Church Street Child Care,Deep river,41.381532,-72.434624,daycare
Nature's Playground,Deep river,41.348077,-72.470275,daycare
Nature's Playground,Deep river,41.348077,-72.470275,daycare
Schoolmates,Deep river,41.348077,-72.470275,daycare
Valley Shore Ymca Sap @ Deep River Elem,Cromwell,41.585133,-72.64538,daycare
Derby Day Care Center Inc,Derby,41.32344,-73.089575,daycare
Learning Studio,Derby,41.322721,-73.090482,daycare
Noah's Ark Early Learning Center Inc.,Derby,41.32911,-73.093352,daycare
Academy Of Little Learners,Durham,41.469424,-72.680099,daycare
B/as Recreation Enrichment-korn School,Durham,41.47663,-72.671276,daycare
Dolphin Days Learning Center,Durham,41.471104,-72.720431,daycare
A First Start Preschool,Moodus,41.48105,-72.446028,daycare
East Haddam Pre-school Inc Plains Rd - Po Box,Moodus,41.5065,-72.4496,daycare
Gingerbread Kids Day Care Inc.,Moodus,41.501684,-72.445306,daycare
Kindercare Learning Center,Moodus,41.502617,-72.473809,daycare
Little Noises Day Care Center,Moodus,41.506994,-72.439578,daycare
Belltown Learning Center & Day Care,East hampton,41.567671,-72.487435,daycare
East Hampton Nursery School Inc.,East hampton,41.572675,-72.500934,daycare
Kids Of Chatham Organization Inc,East hampton,41.595257,-72.489864,daycare
My School,East hampton,41.565073,-72.539318,daycare
Kid's Connection Ii Inc.,New haven,41.315714,-72.879358,daycare
Kid's Connection Iii Llc,East haven,41.262791,-72.870232,daycare
Old Stone Church Play School,East haven,41.277719,-72.871101,daycare
Ballestrini Child Care Center Niantic,Niantic,41.31856,-72.226642,daycare
Bride Brook Child Care Center,Niantic,41.32056,-72.243432,daycare
Carelot Children's Center,East lyme,41.364321,-72.209171,daycare
Christ Lutheran Preschool,Niantic,41.347011,-72.213832,daycare
Kiddie Kampus Learning Center,East lyme,41.356931,-72.210352,daycare
Christ's Church Nursery School,Easton,41.274391,-73.292701,daycare
Covenant Children's Center,Easton,41.222151,-73.255728,daycare
Jesse Lee Nursery School,Easton,41.24141,-73.269332,daycare
New Academy Preschool Inc.,Easton,41.249311,-73.302946,daycare
Playtots Advanced Preschool,Easton,41.244073,-73.273979,daycare
Essex Pre-school Ltd,Essex,41.35336,-72.392651,daycare
Kindercare Learning Center,Essex,41.33732,-72.417302,daycare
Nature's Playground At Essex Elementary,Centerbrook,41.350431,-72.420641,daycare
Bear Hugs Child Care Center Inc.,,41.17732,-73.232792,daycare
Black Rock Nursery School,Fairfield,41.200402,-73.266936,daycare
Bright Futures Child Care Learning Center,,41.175677,-73.25705,daycare
Child Day Care Center @ Tiny Tot Nursery,,41.1411486,-73.25342729,daycare
Child Link-jennings Schl Pta-sacc Aft Schl,,41.186625,-73.245693,daycare
Child's Garden Inc.,Fairfield,41.132462,-73.260878,daycare
Easton Community Center B/a School,,41.20693,-73.248712,daycare
Fairfield University Early Learning Center,,41.161796,-73.254456,daycare
Fairfield Ymca - Mill Hill Site,Southport,41.146361,-73.281691,daycare
Great Beginnings Montessori School Inc,,41.14349259,-73.25060029,daycare
Greenfield Hill Church Nursery School,,41.176421,-73.292767,daycare
Hunt Ridge Montessori Llc,,41.17735,-73.266102,daycare
J.h.e. Child Care Center,Fairfield,41.22334,-73.245262,daycare
Kids Club Inc.,Fairfield,41.19517646,-73.23760548,daycare
Kids' Place - Mckinley School,,41.161722,-73.263861,daycare
Kids Place Inc.,Fairfield,41.176911,-73.255781,daycare
Kid's Time By The Sea,,41.139251,-73.245211,daycare
K'tanim Preschool At Congregation Beth El,,41.187221,-73.250841,daycare
Methodist Nursery School,Fairfield,41.188107,-73.249547,daycare
Mill Hill Kids Care,,41.146361,-73.281691,daycare
Presbyterian Nursery School,,41.212101,-73.246652,daycare
Pumpkin Preschool,,41.15817,-73.242932,daycare
Small To Tall Scholars Llc.,,41.196931,-73.303732,daycare
Southport Cong Presch/toddler Prog,Southport,41.134991,-73.286272,daycare
St. Paul's Nursery School,Fairfield,41.142147,-73.250829,daycare
Teddy Bear Corner Inc.,Fairfield,41.17816,-73.232371,daycare
Teddy Bear Corner Inc.,Fairfield,41.18077,-73.221592,daycare
Trinity Learning Center,,41.150321,-73.251082,daycare
Trinity Parish Nursery School,Southport,41.133671,-73.287911,daycare
Ymca Nayaug Sacc,Glastonbury,41.638921,-72.615561,daycare
Carelot Children's Center-clubhouse,Jewett city,41.596425,-71.978036,daycare
Little Log School House,Jewett city,41.597671,-71.920961,daycare
Tvcca Jewett City Head Start Center,Jewett city,41.609844,-71.976879,daycare
Bright Horizons Children's Center-pfizer,Groton,41.34108,-72.057481,daycare
Cherished Children Llc,Groton,41.34481,-72.054072,daycare
Children's Nook,Groton,41.370491,-72.043921,daycare
Fairview Child Development Center,Groton,41.372127,-72.081759,daycare
Noank Baptist Church Day Nursery School,Groton,41.325695,-71.986606,daycare
Riverfront Children's Center Inc,Groton,41.350385,-72.080902,daycare
St. Andrew Presbyterian Church Preschool,Groton,41.346478,-72.016291,daycare
Stepping Stones Discovery & Development,Groton,41.370671,-72.072732,daycare
Tollgate Christian Nursery School,Groton,41.371158,-72.068985,daycare
Treasure Chest Inc,Groton,41.326288,-71.988821,daycare
Tvcca Early Care Education Groton Center,Groton,41.321862,-72.07312,daycare
Tvcca Groton Head Start,Groton,41.344407,-72.025128,daycare
Community Nrsry Sch Of Guilford,Guilford,41.261701,-72.694002,daycare
Cradles To Crayons,Guilford,41.287891,-72.663842,daycare
Cradles To Crayons Inc.,Guilford,41.287891,-72.663842,daycare
Guilford B/a Calvin Leete School,Guilford,41.281951,-72.668632,daycare
Guilford B/a School Program Cox School,Guilford,41.28595,-72.695011,daycare
Guilford Bef/aft Guilford Lake Sch00l,Guilford,41.351361,-72.689652,daycare
Guilford Center For Children Inc,Guilford,41.283143,-72.681028,daycare
Kiddie Kollege Nursery School,Guilford,41.285621,-72.672341,daycare
Kindercare Learning Center,Guilford,41.29145,-72.696922,daycare
Paddy Cakes Child Care L.l.c.,Guilford,41.28844,-72.674348,daycare
Suncatchers @ Melissa Jones Sch,Guilford,41.368931,-72.727392,daycare
Children's Garden Preschool Llc,Higganum,41.498191,-72.563221,daycare
Haddam Coop Nursery School,Haddam,41.479361,-72.514812,daycare
Haddam-killingworth After School Burr Elem. School - Route,Higganum,41.4658,-72.584,daycare
Alphabet Academy Llc,Hamden,41.367371,-72.944161,daycare
Apple Tree Children's Center,Hamden,41.343491,-72.901162,daycare
Community Children's Center,Hamden,41.421,-72.922502,daycare
Cuddle Time Day Care Llc,Hamden,41.357278,-72.897721,daycare
Duck Pond Day Care Inc,Hamden,41.38555,-72.898472,daycare
Hamden Youth Services Bureau Child Care,Hamden,41.339672,-72.93556,daycare
Hamden/no Haven Ymca Ridge Hill Aft/sch,Hamden,41.34643,-72.897712,daycare
Hamden/north Haven Ymca Dunbar Hill,Hamden,41.366541,-72.941012,daycare
Hamden/north Haven Ymca Spring Glen,Hamden,41.368094,-72.907495,daycare
Hamden/north Haven Ymca West Woods,Hamden,41.432081,-72.924312,daycare
Harris And Tucker School Inc.,Hamden,41.334931,-72.926912,daycare
Harris And Tucker School Inc.,Hamden,41.335072,-72.926879,daycare
Kindercare Learning Center #1764,Hamden,41.383131,-72.899191,daycare
K'tanim Nursery School At Temple Beth,Hamden,41.36484,-72.908602,daycare
Mishkan Israel Nursery School,Hamden,41.35563,-72.901401,daycare
Oakwood Child Care Center Ltd,Hamden,41.366591,-72.940051,daycare
Over The Rainbow,Hamden,41.395831,-72.889871,daycare
Sacred Heart Manor Nursery &,Hamden,41.364979,-72.932095,daycare
Shining Stars Child Care,Hamden,41.352071,-72.937321,daycare
Sleeping Giant Day Care Inc.,Hamden,41.339672,-72.93556,daycare
Spring Glen Church Nursery School,Hamden,41.365433,-72.907609,daycare
Sunshine Preschool,Hamden,41.343921,-72.913161,daycare
The Carrot Patch,Hamden,41.424351,-72.928551,daycare
Therapeutic Preschool Program,Hamden,41.343111,-72.945572,daycare
Whitneyville Church Nursery School,Hamden,41.346773,-72.912643,daycare
Young Hearts Day Care Center,Hamden,41.346101,-72.922692,daycare
Christ Lutheran School,Hebron,41.639403,-72.352504,daycare
Hebron Center Nursery School,Amston,41.639048,-72.346373,daycare
Haddam-killingworth Aft/sch Prog Killingworth Elem. Sch - Rt,Killingworth,41.3792,-72.5754,daycare
Lebanon Kids Inc.,Lebanon,41.627191,-72.236182,daycare
Lebanon Kids Inc. Rte,Lebanon,41.6343,-72.2378,daycare
Ivy Cottage,Ledyard,41.400581,-71.993842,daycare
Child's Play,Ledyard,41.44261,-72.011502,daycare
Ledyard Center Nursery School,Ledyard,41.4405,-72.016262,daycare
School Break,Ledyard,41.441941,-72.010621,daycare
T.l.c. Childcare,Ledyard,41.430161,-71.982201,daycare
United Methodist Child Care Center,Gales ferry,41.430691,-72.083562,daycare
Connect-lcs L.l.c.,Jewett city,41.605498,-72.015964,daycare
Grasshopper Green,Old lyme,41.386826,-72.350186,daycare
123 Grow With Me,Madison,41.300231,-72.587082,daycare
Circle Nrsry School-n Madison,Madison,41.35806,-72.637881,daycare
Learning Village Inc-cabot Cottage,Madison,41.360881,-72.633232,daycare
Learning Village Inc-dewey Cottage,Madison,41.360881,-72.633232,daycare
Lutheran Nursery School Of Madison,Madison,41.27777,-72.604532,daycare
Madison Child Care Center,Madison,41.286981,-72.638372,daycare
Madison Learning Center And Child Care,Madison,41.31707,-72.607131,daycare
Madison School For Young Children,Madison,41.285781,-72.643157,daycare
Montessori School Of Madison,Madison,41.29434,-72.626971,daycare
St Andrew's Preschool,Madison,41.295191,-72.602702,daycare
Temple Beth Tikvah Nursery Sch,Madison,41.29251,-72.602612,daycare
Children's Workshop,Marlborough,41.629596,-72.456319,daycare
Discovery Zone Learning Center,Marlborough,41.64247,-72.438852,daycare
Mecca Marlborough Elem Child Care,Marlborough,41.627911,-72.459571,daycare
Buttons 'n Bows Inc.,Meriden,41.528474,-72.775547,daycare
Carriage House Day Care Center Inc.,Meriden,41.545521,-72.796312,daycare
Casimir Pulaski Before/aft Sch Program,Meriden,41.522937,-72.804893,daycare
Catholic Charities Child Dev. Ctr.,Meriden,41.53992,-72.801432,daycare
Cdi Head Start Serving City Of Meriden Ct,Meriden,41.534276,-72.783796,daycare
Center Preschool,Meriden,41.532765,-72.793337,daycare
Easter Seals All Kids Child Care,Meriden,41.525031,-72.799822,daycare
First Congregational Nursery School,Meriden,41.53979,-72.801532,daycare
Hanover Before/after School Program,Meriden,41.538911,-72.809872,daycare
Kinder Garden Learning Center,Meriden,41.511391,-72.807932,daycare
Kindercare Learning Center,Meriden,41.541035,-72.825027,daycare
Li'l Rascals Preschool Day Care Center Inc.,Meriden,41.528271,-72.780371,daycare
Meriden Ymca Child Care @ Ben Franklin,Meriden,41.54007,-72.817852,daycare
Meriden Ymca Infant & Toddler Center,Meriden,41.519134,-72.830331,daycare
Meriden Ymca Kids Campus,Meriden,41.535225,-72.793258,daycare
Nathan Hale Before/ After School Program,Meriden,41.543029,-72.774817,daycare
St John Lutheran Preschool,Meriden,41.514471,-72.776472,daycare
St. Andrew's Nursery School,Meriden,41.537072,-72.797662,daycare
St. Stanislaus School Readiness,Meriden,41.532612,-72.798973,daycare
Stork Club Inc,Meriden,41.5212,-72.763712,daycare
Wfc Dooley Child Development Center,Meriden,41.542521,-72.799841,daycare
Ymca Meriden Child Care Center,Meriden,41.535786,-72.801869,daycare
Generali School Of Literature & The Arts,Middlebury,41.55518,-73.092442,daycare
Nest Day Care & Learning Ctr Iii,Middlebury,41.500061,-73.156301,daycare
Reg,Middlebury,41.537384,-73.10131,daycare
Region #15 Bas Prog Inc-longmeadow Elem,Middlebury,41.50297,-73.152212,daycare
Middlefield Children's Center Inc.,Middlefield,41.518218,-72.710157,daycare
Miss Joanne's Learning Center,Rockfall,41.532782,-72.702699,daycare
Apple Tree Children's Center,Middletown,41.585818,-72.700617,daycare
Christ Lutheran Nursery School,Middletown,41.559279,-72.660239,daycare
Creative Child Care Center,Middletown,41.562656,-72.709007,daycare
Crt Middletown Early Care & Education,Middletown,41.557172,-72.6525,daycare
Gianelli's Early Learning Center,Middletown,41.504873,-72.669763,daycare
Grace Lutheran Preschool,Middletown,41.531772,-72.651603,daycare
Home On The Grange Child Care Center,Middletown,41.550365,-72.670247,daycare
Kids Korner @ Farm Hill,Middletown,41.538714,-72.642154,daycare
Kids Korner @ Lawrence School,Middletown,41.582957,-72.68008,daycare
Kids Korner @ Moody School,Middletown,41.562463,-72.711612,daycare
Kids Korner @ Spencer School,Middletown,41.56372,-72.676221,daycare
Kids Korner At Macdonough School,Middletown,41.566359,-72.656515,daycare
Middlesex Community College Child Care,Middletown,41.538143,-72.611244,daycare
Middletown Cooperative Preschool Inc.,Middletown,41.556978,-72.647885,daycare
Mxcc Preschool @ Macdonough School,Middletown,41.566359,-72.656515,daycare
Neighborhood Preschool Inc.,Middletown,41.55227,-72.653311,daycare
Neighborhood Preschool Inc,Middletown,41.553268,-72.654906,daycare
P.e.a.c.e. Early Child Dev. Center Inc.,Middletown,41.525833,-72.672303,daycare
Phelps Ingersoll Center For Children,Middletown,41.556671,-72.647092,daycare
South Farms Nursery School Llc,Middletown,41.541365,-72.642486,daycare
Town And Country Early Learning Centers,Middletown,41.550872,-72.649913,daycare
Town And Country Early Learning Centers,Middletown,41.592391,-72.721264,daycare
Connecticut Center For Child Dev. Inc.,Milford,41.214491,-73.074732,daycare
Cornerstone Learning Center,,41.23460507,-73.06242935,daycare
Duck Pond Day Care Inc.,Milford,41.223,-73.051601,daycare
East Shore Day Care Center,Milford,41.22655,-72.994191,daycare
Gingerbread House Of Milfordllc,Milford,41.22701,-73.061831,daycare
Good Shepherd Day Care Center,Milford,41.194911,-73.091683,daycare
Great Beginnings Preschool Llc,Milford,41.217556,-73.073775,daycare
Kiddie Korner Nursery School,Milford,41.19022,-73.091172,daycare
Kindercare Learning Center #310676,Milford,41.25262817,-73.0749316,daycare
Little Eagles Pre-kindergarten Center,Milford,41.227041,-73.012796,daycare
Little White House Learning Center Llc,Milford,41.241121,-73.025601,daycare
Milford Cooperative Preschool Learning,Milford,41.227001,-73.012992,daycare
Milford Preschool Llc,Milford,41.197521,-73.100252,daycare
New England School Of Montessori,Milford,41.237911,-73.009332,daycare
Once Upon A Time Development Center,Milford,41.22335,-73.070582,daycare
Sand Castle Learning Center,Milford,41.23516,-73.010943,daycare
Sedona Daycare And Learning Center,Milford,41.227501,-73.055622,daycare
Team Inc. Egan Center,Milford,41.197521,-73.100252,daycare
Trinity Day School Inc,Milford,41.215726,-73.069059,daycare
Tutor Time Childcare Learning Center,Milford,41.205927,-73.091696,daycare
Woodruff Family Ymca - Jfk,Milford,41.215811,-73.087852,daycare
Woodruff Family Ymca - Live Oaks,Milford,41.237391,-72.996441,daycare
Woodruff Family Ymca - Matthewson,Milford,41.239806,-73.061791,daycare
Woodruff Family Ymca - Meadowside,Milford,41.21029,-73.073841,daycare
Woodruff Family Ymca Calf Pen,Milford,41.213191,-73.029072,daycare
Woodruff Family Ymca Children Center,Milford,41.251818,-73.043995,daycare
Woodruff Family Ymca Margaret Egan,Milford,41.197521,-73.100252,daycare
Woodruff Family Ymca Orange Avenue,Milford,41.23889,-73.049611,daycare
Woodruff Family Ymca Orchard Hills,Milford,41.22107,-73.022642,daycare
Woodruff Family Ymca Pumpkin Delight,Milford,41.20432,-73.078862,daycare
Chalk Hill Middle School Program,Monroe,41.34678,-73.231177,daycare
Childrens Way Preschool,Monroe,41.326731,-73.221502,daycare
Gingerbread School House,Monroe,41.332996,-73.206679,daycare
Kiddie Campus Of Monroe,Monroe,41.326761,-73.246072,daycare
Kindercare Learning Center,Monroe,41.31574,-73.219142,daycare
Kindertime/after School Program,Monroe,41.346161,-73.230281,daycare
Leisure Education Afterschool Program,Monroe,41.316491,-73.254821,daycare
Little Ivy Nursery School,Monroe,41.331882,-73.204761,daycare
Magic Kingdom Day Nursery & Kind. Inc.,Monroe,41.30202,-73.234032,daycare
Step-a-way Nursery School,Monroe,41.32142,-73.264052,daycare
Tiny Treasures Developmental Learning,Monroe,41.329469,-73.204314,daycare
Tutor Time Child Care Learning Center,Monroe,41.324431,-73.266812,daycare
Creative Care Day Care Llc,Oakdale,41.471541,-72.183222,daycare
Growing Garden Nursery School,Oakdale,41.47073,-72.182232,daycare
Teddy Bear Hollow Day Care,Uncasville,41.439931,-72.10661,daycare
Buttons 'n Bows Preschool Day Care Inc.,Naugatuck,41.49598,-73.087657,daycare
Naugatuck Day Care Inc.,Naugatuck,41.489166,-73.050102,daycare
Naugatuck Ymca Nursery School,Naugatuck,41.4919,-73.054952,daycare
Naugatuck Ymca Schools Out Aft/sch,Naugatuck,41.4919,-73.054952,daycare
Rainbowland Nursery School And Day Care,Naugatuck,41.468035,-73.021629,daycare
Salem Community Child Care,Naugatuck,41.49122,-73.068521,daycare
Spark Llc - Andrew Avenue School,Naugatuck,41.483551,-73.067162,daycare
Spark Llc - Maple Hill,Naugatuck,41.48858,-73.014941,daycare
St Vincent Child Care Center,Naugatuck,41.470061,-73.032897,daycare
Sugar Plum Day Care Inc.,Naugatuck,41.508865,-73.056122,daycare
Tender Years Preschool Inc.,Naugatuck,41.49097,-73.055343,daycare
Abiyoyo Family Cooperative Daycare,New haven,41.328645,-72.961859,daycare
Advance Child Care Center,New haven,41.312238,-72.939364,daycare
Alexis Hill Montessori School Inc.,New haven,41.308614,-72.900449,daycare
Bethesda Nursery School Inc.,New haven,41.32313,-72.919272,daycare
Bumble Bee Academy Day Care & Preschool,New haven,41.315309,-72.939325,daycare
Centro San Jose Child Development Ctr,New haven,41.308791,-72.898671,daycare
Cherished Moments Day Care Center,New haven,41.309291,-72.892261,daycare
Children's Preschool Inc,New haven,41.327141,-72.915382,daycare
Creating Kids At The Ct Children's Museum,New haven,41.30868,-72.921461,daycare
Dwight Early Childhood Program,New haven,41.31114106,-72.93736902,daycare
Early Childhood Lrng Ctr-infant-toddler,New haven,41.32786,-72.959542,daycare
Edgewood Pta Child Care Programinc,New haven,41.31825368,-72.96074416,daycare
Elizabeth Celotto Child Care Center,New haven,41.324022,-72.908616,daycare
Family Education & Support Program,New haven,41.321171,-72.918142,daycare
Farnam Nursery School,New haven,41.31337,-72.899242,daycare
Friends Center For Children,New haven,41.305581,-72.879631,daycare
Hope Child Development Center,New haven,41.288581,-72.928951,daycare
Job Corps Child Development Center,Hamden,41.360325,-72.958877,daycare
Kiddie Korner Daycare Llc,New haven,41.308001,-72.915611,daycare
Kindercare Learning Center,New haven,41.297732,-72.913699,daycare
Leila Day Nurseries Inc.,New haven,41.325191,-72.912393,daycare
Leila Day Nurseries Inc. - Annex,New haven,41.325191,-72.912393,daycare
Life Haven Inc.,New haven,41.31191608,-72.89574585,daycare
Lulac Head Start Inc. - Mill River Center,New haven,41.312385,-72.90369,daycare
Lulac Head Start Inc.,New haven,41.299763,-72.932468,daycare
Montessori School On Edgewood,New haven,41.31243828,-72.94149145,daycare
Morning Glory Early Learning Center,New haven,41.31515954,-72.96063184,daycare
Morning Glory Infant Toddler Center,New haven,41.307071,-72.949712,daycare
Neighborhood Music School Preschool &,New haven,41.311401,-72.921404,daycare
New Generation Children's Growth And,East haven,41.26022,-72.893221,daycare
New Haven Ymca Youth Center,New haven,41.309323,-72.935567,daycare
Noah's Park Day Care,New haven,41.305697,-72.912612,daycare
Precious Little Lambs Child Dev. Center,New haven,41.3366,-72.976572,daycare
St Raphael's Infant/toddler Center,New haven,41.310149,-72.944979,daycare
St Raphael's Toddler/preschool Center,New haven,41.310553,-72.944815,daycare
St. Andrew's Child Care Center,East haven,41.254962,-72.891438,daycare
The Little Schoolhouse Llc,New haven,41.33405,-72.976272,daycare
Tiny Treasures Day Care,New haven,41.330421,-72.875272,daycare
United Community Nursery School,New haven,41.30934549,-72.92433317,daycare
Westville Community Nursery School Inc,New haven,41.327451,-72.962381,daycare
Yale Divinity Nursery School,New haven,41.325284,-72.919882,daycare
Yale- New Haven Hospital Day Care Center,New haven,41.302752,-72.937913,daycare
Yls Early Learning Center,New haven,41.311528,-72.927872,daycare
Beth El Nursery School,New london,41.327108,-72.102111,daycare
Billings P. Learned Mission,New london,41.348185,-72.10411,daycare
Child Works Pre-school,New london,41.354987,-72.102273,daycare
Connecticut College Children's Program,New london,41.376978,-72.101427,daycare
Mitchell College Child Learning Center,New london,41.326683,-72.095014,daycare
New London Day Nursery,New london,41.360917,-72.104025,daycare
Pfizer Kids - New London,New london,41.339196,-72.099573,daycare
Tvcca Early Care & Education/head,New london,41.371527,-72.115165,daycare
Children's Adventure Center,Sandy hook,41.422668,-73.278454,daycare
Merryhill Child Care Center Inc.,Newtown,41.40653,-73.29818,daycare
Misty Morning Children's Center,Newtown,41.414159,-73.291762,daycare
Newtown Congregational Coop Nrsry Sch,Newtown,41.412308,-73.312036,daycare
Newtown Sacc Program-head O'meadow,Newtown,41.381643,-73.313478,daycare
Newtown School Age Child Care-hawley,Newtown,41.414642,-73.301841,daycare
Trinity Day School Of Newtown Inc.,Newtown,41.413499,-73.30879,daycare
Wesley Learning Center,Sandy hook,41.419825,-73.284572,daycare
Kid's Connection.com Inc.,North branford,41.332042,-72.802039,daycare
Kids Towne Day Care,Northford,41.389911,-72.794361,daycare
Little People's Junction,North branford,41.33241,-72.800632,daycare
Northford Community Nursery School Middletown Avenue - Po Box,Northford,41.3901,-72.7771,daycare
Nursery On Notch Hill,North branford,41.32625,-72.765922,daycare
The Kid's Connection Iv Llc,Northford,41.39189,-72.790772,daycare
Wee Care Of North Branford Inc,North branford,41.327811,-72.767471,daycare
All Children's Learning Center Llc,North haven,41.389194,-72.853161,daycare
Community Services Day Care Center,North haven,41.38716,-72.862281,daycare
Hamden/north Haven Ymca Clintonville,North haven,41.392109,-72.831439,daycare
Hamden/north Haven Ymca Green Acres A/s,North haven,41.405651,-72.865502,daycare
Kids Towne Day Care,North haven,41.390721,-72.862281,daycare
Kids Towne Daycare,North haven,41.390721,-72.862281,daycare
Kinder Care Learning Ctr Inc #767,North haven,41.392771,-72.858411,daycare
Moppet Minders Nursery School,North haven,41.38716,-72.862281,daycare
Play School Pre-k Learning Center,North haven,41.387908,-72.859653,daycare
St. Frances Cabrini,North haven,41.38776,-72.833572,daycare
St. Therese Nursery School,North haven,41.35865,-72.840271,daycare
Sunny Side Up Early Care Learning Center,North haven,41.38166,-72.857841,daycare
North Stonington Christian Academy,North stonington,41.42936,-71.844561,daycare
North Stonington Nursery School,North stonington,41.44053,-71.883741,daycare
Pollywogs Child Development Center Llc,North stonington,41.448213,-71.896799,daycare
Beth Jacob Nursery School,Norwich,41.521591,-72.103332,daycare
Bright Beginnings Of Norwich,Norwich,41.498791,-72.102032,daycare
Champions At Huntington,Norwich,41.550821,-72.101521,daycare
Champions At Moriarty,Norwich,41.57279,-72.065122,daycare
Champions At Stanton,Norwich,41.522571,-72.103152,daycare
Kids Junction - Uncas Schl Age Cc,Norwich,41.514915,-72.093156,daycare
Kids World Childcare Llc,Norwich,41.51908,-72.094912,daycare
Live And Learn Llc - Norwich Municipal Cc,Norwich,41.511574,-72.112403,daycare
Mary Allen Ross Child Care,Norwich,41.543482,-72.086892,daycare
Mayflower Montessori School,Norwich,41.526191,-72.075771,daycare
Park Nursery School,Norwich,41.534875,-72.081286,daycare
Pooh Corner At The Thames,Norwich,41.505162,-72.090029,daycare
Pooh Corner Preschool Learning Ctr Inc,Norwich,41.546021,-72.100192,daycare
Stoneview Children's University,Norwich,41.54072,-72.085501,daycare
Tvcca Early Care & Education/head,Taftville,41.566464,-72.051908,daycare
Wildwood Christian School Preschool,Norwich,41.514211,-72.116552,daycare
Lad & Lassie Nursery,Old lyme,41.36117,-72.303352,daycare
Old Lyme Children's Learning,Old lyme,41.319912,-72.329115,daycare
Old Lyme Children's Learning,Old lyme,41.319912,-72.329115,daycare
Old Lyme Children's Learning Ctr School,Old lyme,41.31888,-72.329347,daycare
Beach Babies Learning Ctr Llc,Old saybrook,41.310024,-72.366166,daycare
Beach Babies Learning Ctr Llc Preschool,Old saybrook,41.310024,-72.366166,daycare
Circle Of Friends Montessori,Old saybrook,41.308448,-72.368165,daycare
Community Coop Nursery School First Church Christ,Old saybrook,41.286279,-72.375277,daycare
My Second Home,Old saybrook,41.292969,-72.383993,daycare
Sherwood Children's Corner,Old saybrook,41.28977,-72.378132,daycare
The Children's Tree Montessori Llc,Old saybrook,41.318789,-72.359676,daycare
Valley Shore Ymca Sch Age Prog-goodwin,Westbrook,41.278019,-72.468886,daycare
Ymca Sch Age Prg Old Saybrook Mddl,Westbrook,41.290191,-72.45509,daycare
Bright Horizons A Yale Affiliated Center,Orange,41.25338,-72.998502,daycare
Bright Horizons Children's Center Of,Orange,41.26057,-73.006941,daycare
Duck Pond Day Care Inc.,Orange,41.278996,-73.008012,daycare
Holy Infant Preschool,Orange,41.278799,-73.007917,daycare
Orange Community Nursery School,Orange,41.273621,-73.022722,daycare
Orange Congregational Church Nursery,Orange,41.28010208,-73.02547907,daycare
Shagbark Day Nursery,Orange,41.281021,-73.027691,daycare
Stork Clubinc.,Orange,41.311831,-73.040751,daycare
The Goddard School,Orange,41.267409,-73.003641,daycare
Christ Church Preschool,Oxford,41.426151,-73.155882,daycare
Kindercare Learning Center,Oxford,41.460471,-73.155177,daycare
Small World Nursery School Inc,Seymour,41.356113,-73.110923,daycare
Soncca-oxford Kindergarten @ Quaker,Oxford,41.426222,-73.141975,daycare
Community Renewal Team-portland Head,Portland,41.569472,-72.64451,daycare
First Church Nursery School,Portland,41.591333,-72.62413,daycare
Kids Korner At Valley View School,Portland,41.579972,-72.625468,daycare
Zion Lutheran Sunny Hill Preschool,Portland,41.584197,-72.620666,daycare
Giggle-n-grow Development Group Llc,Prospect,41.518084,-72.989709,daycare
Grandma's Learning Center Inc.,Prospect,41.506501,-73.003082,daycare
Prospect Nursery School Inc,Prospect,41.501784,-72.978485,daycare
Ymca Prospect After School Program,Prospect,41.499679,-72.977219,daycare
The Children's Station,Roxbury,41.555976,-73.330631,daycare
Quality Care Day Care & Coop Nursery,Salem,41.48077,-72.270172,daycare
Country Bear Preschool Inc.,Seymour,41.39497,-73.079052,daycare
Explorers Learning Center,Seymour,41.391382,-73.054882,daycare
Kiddie Kastle Nursery School Llc,Seymour,41.377161,-73.125932,daycare
Seymour Head Start,Seymour,41.37451,-73.111042,daycare
Seymour School Readiness,Seymour,41.389201,-73.071471,daycare
Seymour-oxford Child Care Assoc.inc,Seymour,41.402941,-73.055352,daycare
Seymour-oxford Nrsry & Cc Assoc-bungay,Seymour,41.38748,-73.084362,daycare
Soncaa-lopresti School,Seymour,41.389201,-73.071471,daycare
Soncca-seymour Middle School,Seymour,41.37451,-73.111042,daycare
Teddy Bear Treehouse Learning Center Llc,Seymour,41.385357,-73.074496,daycare
Village Strawberry Patch Ns/dcc,Seymour,41.397318,-73.077171,daycare
Apple Tree Day Care & Preschool Center Llc,Shelton,41.283852,-73.110303,daycare
Bright Horizons Childrens Ctr @,Shelton,41.27602,-73.129223,daycare
Child's Garden Inc.,Shelton,41.293489,-73.088463,daycare
Happy Day Preschool Llc,Shelton,41.294101,-73.146101,daycare
Hide Out,Shelton,41.303847,-73.171213,daycare
Huntington Center Nursery School,Shelton,41.295459,-73.147002,daycare
Huntington Point Child Dev Ctr Inc.,Shelton,41.257323,-73.145758,daycare
Kid's First Learning Center,Shelton,41.332171,-73.140515,daycare
Kid's First Learning Center Llc,Shelton,41.28646,-73.104597,daycare
Kidstop Developmental Child Care,Shelton,41.307441,-73.099241,daycare
Kindercare Learning Center Inc.,Shelton,41.267331,-73.131222,daycare
Learning Connection Llc,Shelton,41.301541,-73.103935,daycare
Little Academy Inc,Shelton,41.29800936,-73.07263241,daycare
Pumpkin Preschool Of Shelton,Shelton,41.27853442,-73.11939454,daycare
Shelton School Readiness,Shelton,41.311052,-73.087385,daycare
Small World,Shelton,41.36217,-73.158951,daycare
Susanna Wesley Nursery School,Shelton,41.31148,-73.168711,daycare
Tutor Time Child Care Learning Center,Shelton,41.27636,-73.12261,daycare
Valley Ymca School Age Child Care-shelton,Shelton,41.29094597,-73.07419025,daycare
Wonder Years Learning Center,Shelton,41.286551,-73.096732,daycare
Child's World Preschool & Child Care Ii,Southbury,41.476168,-73.198006,daycare
First Steps Southbury Dc/lrng Ctr,Southbury,41.46413,-73.161452,daycare
Great Expectations Annex,Southbury,41.466731,-73.170822,daycare
Great Expectations Day Care & Lng. Ctr. Llc,Southbury,41.466712,-73.170541,daycare
Little People Of Southbury,Southbury,41.46202,-73.233151,daycare
Preschool Center,Southbury,41.484391,-73.212841,daycare
St. James Lutheran Preschool,Southbury,41.46774,-73.222051,daycare
William & Audrey Wolzer Alef Bet,Southbury,41.48851,-73.213031,daycare
Bright Beginnings,Plantsville,41.588033,-72.895001,daycare
Bright Beginnings Too!,Southington,41.58298,-72.869272,daycare
Giggles & Grins Child Care Center Llc,Plantsville,41.576321,-72.893122,daycare
Grace Nursery School,Southington,41.600161,-72.857252,daycare
Kiddie Korner Childcare Center Llc,Plantsville,41.57232,-72.921921,daycare
Margaret C Griffin Child Dev Ctr,Southington,41.596431,-72.877792,daycare
Plantsville Community Nursery School,Plantsville,41.58899,-72.894319,daycare
Pumpkin Patch Preschool & Child Care,Southington,41.619291,-72.899381,daycare
Southington Community Ymca School Age,Southington,41.60304,-72.879631,daycare
Stork Clubinc.,Southington,41.624821,-72.899751,daycare
Theresa's Little Angels,Southington,41.63399,-72.868012,daycare
Village Green Nursery School,Southington,41.60137,-72.878271,daycare
Ymca Learning Center,Southington,41.60304,-72.879532,daycare
Ymca Sacc @ Flanders School,Southington,41.61604,-72.850392,daycare
Ymca Sacc @ Hatton School,Southington,41.60146,-72.854712,daycare
Ymca Sacc @ Kelley School,Southington,41.60976,-72.894582,daycare
Ymca Sacc @ Strong School,Southington,41.573671,-72.919292,daycare
Zion Lutheran Nursery School,Southington,41.60584,-72.857001,daycare
Calvary Nursery School,Stonington,41.334136,-71.905084,daycare
Child's Garden Montessori Preschool,Stonington,41.405986,-71.935789,daycare
Como Kids Prg-west Vine Site B/as,Pawcatuck,41.385569,-71.842,daycare
Como Kids Program,Stonington,41.338408,-71.903756,daycare
Como Kids Program-deans Mill Site- B/a,Stonington,41.362375,-71.924547,daycare
Denison Pequotsepos Nature Center,Mystic,41.362884,-71.946308,daycare
Happy Time Nursery School,Mystic,41.354493,-71.973185,daycare
Hilltop Montessori Nursery School Inc,Mystic,41.362918,-71.955634,daycare
Ocean Comm Ymca Asp @ Sb Butler School,Mystic,41.349144,-71.982481,daycare
Pendleton Child Care,Mystic,41.366234,-71.951139,daycare
Pollywogs Child Development Center,Stonington,41.351832,-71.88901,daycare
Precious Memories Preschool Of Mystic,Mystic,41.370201,-71.980472,daycare
Precious Memories Preschool Of Sandy,Mystic,41.370201,-71.980472,daycare
Tvcca Stonington Head Start,Pawcatuck,41.376163,-71.837508,daycare
Abc Child Care Center,Stratford,41.209251,-73.151132,daycare
Affordable And Loving Child Care Llc,Stratford,41.15546,-73.113541,daycare
Briarfield Stratford Day School Llc,Stratford,41.214794,-73.151531,daycare
Champions At Chapel Elementary School,Stratford,41.238199,-73.118276,daycare
Champions At Eli Whitney School,Stratford,41.22206,-73.13474,daycare
Champions At South End Community Center,Stratford,41.17319,-73.136461,daycare
Champions At Wilcoxson School,Stratford,41.207503,-73.122706,daycare
Champions Pre-k @ Johnson,Stratford,41.17984,-73.139308,daycare
Cheyenne's Day Care & Learning Center,Stratford,41.148374,-73.130467,daycare
Cheyenne's Daycare & Learning Center,Stratford,41.191421,-73.151132,daycare
Grace Lutheran Church Nursery Sch,Stratford,41.238381,-73.112831,daycare
Helen King Reynolds Private School,Stratford,41.19278,-73.127492,daycare
Honey Bear Learning Center Inc.,Stratford,41.20413,-73.140032,daycare
Johnson Academy Head Start Center,Stratford,41.17930516,-73.13946741,daycare
K-3 After School Enrichment Program,Stratford,41.17319,-73.136461,daycare
Lordship Learning Tree Preschool/daycare,Stratford,41.155287,-73.123666,daycare
Our Lady Of Grace Preschool,Stratford,41.217304,-73.154153,daycare
Pumpkin Patch Day Care,Stratford,41.24201,-73.107511,daycare
Sterling House Preschool,Stratford,41.191521,-73.130392,daycare
Stratford Baptist Pre-school,Stratford,41.208547,-73.131711,daycare
Stratford United Methodist Presch,Stratford,41.19642,-73.131961,daycare
Stratford Ymca Child Care Prog-second,Stratford,41.278493,-73.007684,daycare
Stratford Ymca Extended Day @ Nichols,Stratford,41.20205,-73.139532,daycare
Stratford Ymca Extended Day Program,Stratford,41.201941,-73.131181,daycare
Stratford Ymca Extended Day-franklin,Stratford,41.193138,-73.146217,daycare
Strtfd Ymca C C Prog.@ Strtfd,Stratford,41.17926214,-73.13941426,daycare
Sunny Day's Preschool Llc,Stratford,41.19277,-73.136531,daycare
Abcd Middlebrooks School Child Care,Trumbull,41.250516,-73.211534,daycare
All In One Nursery School Llc,Trumbull,41.241312,-73.146365,daycare
Blessed Lambs Preschool,Trumbull,41.228227,-73.177853,daycare
B'nai Torah Nursery School,Trumbull,41.251369,-73.219937,daycare
Bright Horizons At Trumbull,Trumbull,41.294302,-73.230621,daycare
Cornerstone Children's Center,Trumbull,41.235225,-73.232408,daycare
Creative Development Day Care,Trumbull,41.28964,-73.241184,daycare
Holy Cross Christian Preschool,Trumbull,41.261086,-73.221012,daycare
Jo Anne's Learning Center,Trumbull,41.222343,-73.174582,daycare
Kid-e-day Care,Trumbull,41.26842,-73.22535,daycare
Kids Connection Child Care Center,Trumbull,41.241463,-73.146453,daycare
Little Red Schoolhouse,Trumbull,41.259487,-73.220027,daycare
Long Hill United Methodist Children's Ctr,Trumbull,41.272459,-73.226563,daycare
Montessori Center For Early Learning Inc.,Trumbull,41.242819,-73.19595,daycare
Mothers Day Out,Trumbull,41.241863,-73.161022,daycare
New Life Nursery School,Trumbull,41.255861,-73.195117,daycare
T.l.c. Inc - Middlebrook,Trumbull,41.250265,-73.211684,daycare
The Laurel School,Trumbull,41.224543,-73.175156,daycare
Trumbull Loves Children Inc - Frenchtown,Trumbull,41.229678,-73.211621,daycare
Trumbull Loves Children Inc-daniels Farm,Trumbull,41.269427,-73.200118,daycare
Trumbull Loves Children Inc-jane Ryan,Trumbull,41.253528,-73.228915,daycare
Trumbull Loves Children Inc-tashua,Trumbull,41.275626,-73.243122,daycare
Trumbull Loves Children/hillcrest,Trumbull,41.263004,-73.198711,daycare
Trumbull Loves Children-booth Hill,Trumbull,41.260594,-73.170476,daycare
Trumbull Loves Children-fun Zone,Trumbull,41.269766,-73.200183,daycare
Tutor Time Child Care Learning Centers,Trumbull,41.226758,-73.244246,daycare
Building Blocks Learning Center,Wallingford,41.484112,-72.784937,daycare
Child Dev Center @ Bristol-myers Squibb,Wallingford,41.480865,-72.764266,daycare
Cookie Club,Wallingford,41.462268,-72.824185,daycare
Creative Beginnings Learning Center Llc,Wallingford,41.490605,-72.762564,daycare
Fairy Tales Child Care & Development,Wallingford,41.484379,-72.815013,daycare
Good Shepherd Christian Preschool,Wallingford,41.455607,-72.819631,daycare
I'm Special Learning Center Inc.,Wallingford,41.490844,-72.819945,daycare
Jumpin' Beans Day School Ltd.,Wallingford,41.4914,-72.80708,daycare
Kiddie Korner Nursery Workshop Llc,Wallingford,41.456118,-72.774286,daycare
Kids Care Child Development Center Inc.,Wallingford,41.490546,-72.804071,daycare
Kidz R Us Child Care & Learning Center Llc,Wallingford,41.448851,-72.84371,daycare
Kindercare Learning Center Inc.,Wallingford,41.480754,-72.77292,daycare
Learning Community,Wallingford,41.456719,-72.80729,daycare
Lil Tykes Day Care,Wallingford,41.468817,-72.855133,daycare
Little People's Learning Center Llc,Wallingford,41.480221,-72.827427,daycare
Little Zion Pre-school,Wallingford,41.422956,-72.826724,daycare
Masonic Child Development Center,Wallingford,41.459423,-72.83741,daycare
Precious Cargo Daycare & Learning Center,Wallingford,41.486685,-72.812717,daycare
Rotary/ymca Teen Center,Wallingford,41.451406,-72.816557,daycare
Sonshine Christian Preschool,Wallingford,41.490074,-72.813175,daycare
St Paul's Nursery School Inc,Wallingford,41.454795,-72.817849,daycare
Wallingford Community Day Care Inc.,Wallingford,41.439485,-72.816279,daycare
Wallingford Family Ymca Kindergarten,Wallingford,41.451154,-72.818355,daycare
Wallingford Family Ymca Parker Farms,Wallingford,41.476261,-72.833569,daycare
Wallingford Family Ymca Sch Age-cook Hill,Wallingford,41.458701,-72.859335,daycare
Wallingford Family Ymca Yalesville,Wallingford,41.491961,-72.823741,daycare
Wallingford Family Ymca-e C Stevens,Wallingford,41.433179,-72.816518,daycare
Wallingford Family Ymca-highland School,Wallingford,41.487982,-72.842338,daycare
Wallingford Family Ymca-moses Y. Beach,Wallingford,41.459284,-72.814625,daycare
Wallingford Family Ymca-pondhill School,Wallingford,41.419508,-72.81928,daycare
Wallingford Family Ymca-rock Hill,Wallingford,41.457081,-72.787324,daycare
Wallingford Parks & Rec Li'l Recer's,Wallingford,41.48377,-72.791066,daycare
Ymca/gaylord Early Learning Center,Wallingford,41.468817,-72.855133,daycare
All Kids Child Care,Waterbury,41.551369,-72.966639,daycare
Abbott Terrace Day Care Presch,Waterbury,41.556563,-73.037405,daycare
All Kids Child Care,Waterbury,41.57445,-73.065904,daycare
Ark Child Development Center Inc.,Waterbury,41.543556,-73.008903,daycare
Brooklyn Before And After School,Waterbury,41.545629,-73.046706,daycare
Bunker Hill Nursery School,Waterbury,41.569997,-73.065147,daycare
Carrington Before And After School,Waterbury,41.571687,-73.08316,daycare
Catholic Charities Child Development,Waterbury,41.560649,-73.038497,daycare
Catholic Charities Child Development,Waterbury,41.543125,-73.037477,daycare
Chase School Child Development Center,Waterbury,41.552855,-73.006423,daycare
Children's Ctr Greater Watby Health,Waterbury,41.558153,-73.059934,daycare
Country Garden Day Care/preschool,Waterbury,41.543854,-73.071636,daycare
Joshua's Treehouse Inc.,Waterbury,41.541938,-72.999925,daycare
Kid's Town Llc,Waterbury,41.564254,-73.009456,daycare
Muriel H. Moore Child Development Center,Waterbury,41.56007,-73.034849,daycare
Naugatuck Valley Comm.-tech. Col. Child,Waterbury,41.546896,-73.072771,daycare
Pierpont Head Start Center,Waterbury,41.544913,-72.980009,daycare
Rainbow Academy Llc,Waterbury,41.594559,-73.029886,daycare
School Readiness Prog/ Waterbury Youth,Waterbury,41.586462,-73.049695,daycare
Slocum School Head Start,Waterbury,41.562989,-73.025022,daycare
St. Mary's Hospital Child Dev. Ctr.,Waterbury,41.552764,-73.039711,daycare
The Ark Early Care & Education Center Llc,Waterbury,41.557411,-73.04467,daycare
Toddler Town Llc - Childcare Campus &,Waterbury,41.552104,-73.010253,daycare
Waterbury Day Nursery Association,Waterbury,41.562847,-73.041416,daycare
Waterbury Ymca Child Care Center,Waterbury,41.557029,-73.042844,daycare
Wee Care Nursery & Day Care Inc.dba/one,Waterbury,41.540432,-73.086215,daycare
Wee Care Nursery&day Care Inc.dba/two,Waterbury,41.540513,-73.086266,daycare
Wilson School Child Development Center,Waterbury,41.557014,-73.020783,daycare
Ballestrini Day Care Center,Waterford,41.340101,-72.141362,daycare
Ballestrini's Day Care Ctrinfant/toddler,Waterford,41.340101,-72.141362,daycare
Carelot Children's Center,Waterford,41.3449,-72.135402,daycare
Carelot Children's Ctr Inc-carelot,Waterford,41.342166,-72.132167,daycare
Judson School After School Program,Watertown,41.601531,-73.130431,daycare
Ledgewood Private Preschool,Watertown,41.62323,-73.106171,daycare
Little People Of Watertown,Watertown,41.60124,-73.115501,daycare
Mother Goose Preschool,Watertown,41.60596,-73.118211,daycare
Owl & Pussycat Nursery School Llc,Oakville,41.58811,-73.086151,daycare
Polk After School Child Care Program,Oakville,41.598904,-73.085808,daycare
Rainbowland Nursery School L.c.,Watertown,41.61287,-73.089402,daycare
Rise & Shine Nursery School,Watertown,41.60565,-73.118861,daycare
Tlc Learning Ctr And Day Care Inc,Oakville,41.592015,-73.083965,daycare
