X,Y,OBJECTID,NAME,LADDR,LADDR2,LCITY,LSTATE,LZIP,LZIP4,LEVEL_,LAT,LON
-72.899484952768319,41.528906698885123,1,MANSON YOUTH INSTITUTION,42 JARVIS ST,,CHESHIRE,CT,06410,1503,Unknown,41.52890670,-72.89948495
-72.697589739874559,41.791487800121956,2,JUMOKE ACADEMY,250 BLUE HILLS AVE,,HARTFORD,CT,06112,,Unknown,41.79148780,-72.69758974
-72.687594209704969,41.796436023803494,3,CAPITOL REGION MENTAL HEALTH CENTER,500 VINE ST,,HARTFORD,CT,06112,,Unknown,41.79643602,-72.68759421
-73.065337865150298,41.326823433254901,4,ANSONIA HIGH SCHOOL,20 PULASKI HWY,,ANSONIA,CT,06401,2561,Unknown,41.32682343,-73.06533787
-72.909547184754729,41.371404123001923,5,WHITNEY HIGH SCHOOL WEST,205 SKIFF ST,,HAMDEN,CT,06517,,Unknown,41.37140412,-72.90954718
-72.889989349428902,41.792649606394264,6,ROARING BROOK SCHOOL,30 OLD WHEELER LN,,AVON,CT,06001,4061,Unknown,41.79264961,-72.88998935
-72.755952483320414,41.615952714646141,7,EMMA HART WILLARD SCHOOL,1088 NORTON RD,,BERLIN,CT,06037,3020,Unknown,41.61595271,-72.75595248
-73.394998466106301,41.383056695410232,8,ANNA H. ROCKWELL SCHOOL,400 WHITTLESEY DR,,BETHEL,CT,06801,1599,Unknown,41.38305670,-73.39499847
-73.392359904685804,41.383421962253806,9,RALPH M. T. JOHNSON SCHOOL,500 WHITTLESEY DR,,BETHEL,CT,06801,1595,Unknown,41.38342196,-73.39235991
-72.716695989628192,41.824512826605712,10,CARMEN ARACE INTERMEDIATE SCHOOL,390 PARK AVE,,BLOOMFIELD,CT,06002,,Unknown,41.82451283,-72.71669599
-72.820683006915203,41.293648909769445,11,MARY T. MURPHY SCHOOL,14 BRUSHY PLAIN RD,,BRANFORD,CT,06405,6001,Unknown,41.29364891,-72.82068301
-73.175153000110811,41.193171951824183,12,LUIS MUNOZ MARIN SCHOOL,479 HELEN ST,,BRIDGEPORT,CT,06608,1321,Unknown,41.19317195,-73.17515300
-73.218665224220672,41.160677632366912,13,LONGFELLOW SCHOOL,139 OCEAN TERRACE,,BRIDGEPORT,CT,06605,2716,Unknown,41.16067763,-73.21866522
-73.204577588984478,41.175931133415133,14,CURIALE SCHOOL,300 LAUREL AVE,,BRIDGEPORT,CT,06604,1103,Unknown,41.17593113,-73.20457759
-73.186465162037564,41.165699695784383,15,NEW START PROGRAM,136 LAFAYETTE ST,,BRIDGEPORT,CT,06604,,Unknown,41.16569970,-73.18646516
-72.922054031268488,41.685826327922769,16,BRISTOL EASTERN HIGH SCHOOL,632 KING ST,,BRISTOL,CT,06010,4477,Unknown,41.68582633,-72.92205403
-72.908261644359357,41.712846761868605,17,NORTHEAST MIDDLE SCHOOL,530 STEVENS ST,,BRISTOL,CT,06010,2587,Unknown,41.71284676,-72.90826164
-71.937209853551849,41.784233474595226,18,BROOKLYN ELEMENTARY SCHOOL,119 GORMAN RD,,BROOKLYN,CT,06234,1805,Unknown,41.78423348,-71.93720985
-72.916762702736492,41.826491641775874,19,CANTON HIGH SCHOOL,76 SIMONDS AVE,,CANTON,CT,06019,1207,Unknown,41.82649164,-72.91676270
-72.686786535769954,41.749755115806011,20,MONTESSORI MAGNET SCHOOL,1460 BROAD ST,,HARTFORD,CT,06106,,Unknown,41.74975512,-72.68678654
-72.89671407499452,41.510656839341721,21,HIGHLAND SCHOOL,490 HIGHLAND AVE,,CHESHIRE,CT,06410,2518,Unknown,41.51065684,-72.89671408
-73.199530034283612,41.233172096714952,22,SCHOOL READINESS,40 LINDEMAN DR,,TRUMBULL,CT,06611,,Unknown,41.23317210,-73.19953003
-72.367680507849116,41.794951608230178,23,COVENTRY GRAMMAR SCHOOL,3453 MAIN ST,,COVENTRY,CT,06238,1568,Unknown,41.79495161,-72.36768051
-72.659880570232076,41.615043527037187,24,CROMWELL HIGH SCHOOL,DONALD HARRIS DR,,CROMWELL,CT,06416,1698,Unknown,41.61504353,-72.65988057
-73.434284176973165,41.420749553149392,25,GREAT PLAIN SCHOOL,10 STADLEY ROUGH RD,,DANBURY,CT,06811,4023,Unknown,41.42074955,-73.43428418
-73.418347109331592,41.393274349131957,26,SHELTER ROCK SCHOOL,2 CROWS NEST RD,,DANBURY,CT,06810,7056,Unknown,41.39327435,-73.41834711
-73.488227437845921,41.058958232236705,27,HINDLEY ELEMENTARY SCHOOL,10 NEARWATER LN,,DARIEN,CT,06820,5698,Unknown,41.05895823,-73.48822744
-73.512535442756416,41.079157666393257,28,HOLMES ELEMENTARY SCHOOL,18 HOYT ST,,DARIEN,CT,06820,3115,Unknown,41.07915767,-73.51253544
-72.486007154006927,41.57063408889212,29,MEMORIAL SCHOOL,20 SMITH ST,,EAST HAMPTON,CT,06424,1698,Unknown,41.57063409,-72.48600715
-72.835490567435727,41.326685355844575,30,DEER RUN SCHOOL,311 FOXON RD,,EAST HAVEN,CT,06512,1449,Unknown,41.32668536,-72.83549057
-72.880899748624472,41.280202284308018,31,OVERBROOK ELEMENTARY SCHOOL,54 GERRISH AVE,,EAST HAVEN,CT,06512,,Unknown,41.28020228,-72.88089975
-72.21446077694327,41.348130026379692,32,LILLIE B. HAYNES SCHOOL,29 SOCIETY RD,,NIANTIC,CT,06357,1107,Unknown,41.34813003,-72.21446078
-72.500332498945625,41.871589770851301,33,WINDERMERE SCHOOL,2 ABBOTT RD,,ELLINGTON,CT,06029,3800,Unknown,41.87158977,-72.50033250
-72.570313750279297,41.948895797902821,34,EDGAR H. PARKMAN SCHOOL,165 WEYMOUTH RD,,ENFIELD,CT,06082,6200,Unknown,41.94889580,-72.57031375
-72.513966326384832,41.988635791408683,35,NATHAN HALE SCHOOL,5 TAYLOR RD,,ENFIELD,CT,06082,4001,Unknown,41.98863579,-72.51396633
-73.233943980030631,41.18639494776869,36,FAIRFIELD WARDE HIGH SCHOOL,755 MELVILLE AVE,,FAIRFIELD,CT,06825,,Unknown,41.18639495,-73.23394398
-73.233544231381131,41.187213481916729,37,EARLY CHILDHOOD CENTER,755 MELVILLE AVE,,FAIRFIELD,CT,06825,,Unknown,41.18721348,-73.23354423
-72.798503163090459,41.721271847317951,38,FARMINGTON COLLABORATIVE PK,20 WOLF PIT RD,,FARMINGTON,CT,06032,,Unknown,41.72127185,-72.79850316
-72.794381767104824,41.93720237289125,39,FRANK M. KEARNS PRIMARY SCHOOL,5 CANTON RD,,GRANBY,CT,06035,2502,Unknown,41.93720237,-72.79438177
-73.612440865353619,41.040446750916885,40,GREENWICH HIGH SCHOOL,10 HILLSIDE RD,,GREENWICH,CT,06830,4835,Unknown,41.04044675,-73.61244086
-73.579680904150393,41.032833028421578,41,RIVERSIDE SCHOOL,90 HENDRIE AVE,,RIVERSIDE,CT,06878,1829,Unknown,41.03283303,-73.57968090
-71.981211370907999,41.595342715693846,42,GRISWOLD HIGH SCHOOL,267 SLATER AVE,,GRISWOLD,CT,06351,2533,Unknown,41.59534272,-71.98121137
-72.032390580760648,41.345345170443295,43,FITCH MIDDLE SCHOOL,61 FORT HILL RD,,GROTON,CT,06340,4332,Unknown,41.34534517,-72.03239058
-71.985131548981769,41.382692274828685,44,NORTHEAST ACADEMY ELEMENTARY SCHOOL,15 OSLO ST,,GROTON,CT,06355,,Unknown,41.38269227,-71.98513155
-72.927312382560388,41.389642794979068,45,BEAR PATH SCHOOL,10 KIRK RD,,HAMDEN,CT,06514,1308,Unknown,41.38964280,-72.92731238
-72.943481268445737,41.350057339174896,46,HELEN STREET SCHOOL,285 HELEN ST,,HAMDEN,CT,06514,3235,Unknown,41.35005734,-72.94348127
-72.908200462581249,41.368922632673389,47,SPRING GLEN SCHOOL,1908 WHITNEY AVE,,HAMDEN,CT,06517,1206,Unknown,41.36892263,-72.90820046
-72.680256437884282,41.733925134937067,48,DR. JOSEPH BELLIZZI MIDDLE SCHOOL,215 SOUTH ST,,HARTFORD,CT,06114,2935,Unknown,41.73392513,-72.68025644
-72.70256417789443,41.741065714211402,49,HOOKER SCHOOL,200 SHERBROOKE AVE,,HARTFORD,CT,06106,3748,Unknown,41.74106571,-72.70256418
-72.698387823439248,41.75036710086107,50,MCDONOUGH SCHOOL,111 HILLSIDE AVE,,HARTFORD,CT,06106,3545,Unknown,41.75036710,-72.69838782
-72.675877777337519,41.778857259055314,51,AMERICAS CHOICE AT SAND,1750 MAIN ST,,HARTFORD,CT,06120,2715,Unknown,41.77885726,-72.67587778
-72.712205883294814,41.768612815429151,52,NOAH WEBSTER MICRO SOCIETY SCHOOL,5 CONE ST,,HARTFORD,CT,06105,2502,Unknown,41.76861281,-72.71220588
-72.702119785099967,41.791688776116189,53,BREAKTHROUGH MAGNET SCHOOL,121 CORNWALL ST,,HARTFORD,CT,06112,,Unknown,41.79168878,-72.70211978
-72.701116621035169,41.764806209139294,54,CLASSICAL MAGNET SCHOOL,55 FOREST ST,,HARTFORD,CT,06105,3243,Unknown,41.76480621,-72.70111662
-72.205148556160907,41.640346340411327,55,LEBANON ELEMENTARY SCHOOL,479 EXETER RD,,LEBANON,CT,06249,1505,Unknown,41.64034634,-72.20514856
-72.070176930221123,41.451625608235304,56,JULIET W. LONG SCHOOL,1854 ROUTE 12,,GALES FERRY,CT,06335,1127,Unknown,41.45162561,-72.07017693
-72.61979861131681,41.292481106817661,57,DANIEL HAND HIGH SCHOOL,286 GREEN HILL RD,,MADISON,CT,06443,2283,Unknown,41.29248111,-72.61979861
-72.51008139723865,41.788632002065299,58,BOWERS SCHOOL,141 PRINCETON ST,,MANCHESTER,CT,06040,3222,Unknown,41.78863200,-72.51008140
-72.533711986918604,41.767042204334302,59,WASHINGTON SCHOOL,94 CEDAR ST,,MANCHESTER,CT,06040,5839,Unknown,41.76704220,-72.53371199
-72.832118973112074,41.519013650059946,60,HANOVER SCHOOL,208 MAIN ST,,MERIDEN,CT,06450,5149,Unknown,41.51901365,-72.83211897
-72.826780657701136,41.533992321888206,61,ORVILLE H. PLATT HIGH SCHOOL,220 COE AVE,,MERIDEN,CT,06450,3812,Unknown,41.53399232,-72.82678066
-72.641341608328503,41.538341419920641,62,FARM HILL SCHOOL,390 RIDGE RD,,MIDDLETOWN,CT,06457,4437,Unknown,41.53834142,-72.64134161
-72.711966482866842,41.563773009916531,63,MOODY SCHOOL,300 COUNTRY CLUB RD,,MIDDLETOWN,CT,06457,2302,Unknown,41.56377301,-72.71196648
-73.088980461678943,41.203899527441308,64,JONATHAN LAW HIGH SCHOOL,20 LANSDALE AVE,,MILFORD,CT,06460,5199,Unknown,41.20389953,-73.08898046
-73.062767564071805,41.239142767724616,65,MATHEWSON SCHOOL,466 WEST RIVER ST,,MILFORD,CT,06460,1919,Unknown,41.23914277,-73.06276756
-73.078064457408743,41.204318616011392,66,PUMPKIN DELIGHT SCHOOL,27 ART ST,,MILFORD,CT,06460,4318,Unknown,41.20431862,-73.07806446
-73.234064317414266,41.345237652895435,67,CHALK HILL SCHOOL,375 FAN HILL RD,,MONROE,CT,06468,1360,Unknown,41.34523765,-73.23406432
-73.254164384578644,41.317726987710387,68,STEPNEY ELEMENTARY SCHOOL,180 OLD NEWTOWN RD,,MONROE,CT,06468,1106,Unknown,41.31772699,-73.25416438
-73.065407663332962,41.48314915720789,69,ANDREW AVENUE SCHOOL,140 ANDREW AVE,,NAUGATUCK,CT,06770,4303,Unknown,41.48314916,-73.06540766
-73.017639491169518,41.488957004162444,70,MAPLE HILL SCHOOL,641 MAPLE HILL RD,,NAUGATUCK,CT,06770,3557,Unknown,41.48895700,-73.01763949
-72.771333164693772,41.676932836880951,71,SMALLEY ACADEMY,175 WEST ST,,NEW BRITAIN,CT,06051,1415,Unknown,41.67693284,-72.77133317
-73.485719448094017,41.131341775102896,72,SAXE MIDDLE SCHOOL,468 SOUTH AVE,,NEW CANAAN,CT,06840,6321,Unknown,41.13134178,-73.48571945
-72.893510580149098,41.308613000889352,73,FAIR HAVEN SCHOOL,164 GRAND AVE,,NEW HAVEN,CT,06513,3938,Unknown,41.30861300,-72.89351058
-72.938889518036774,41.297582339353539,74,POLLY T. MCCABE CENTER,390 COLUMBUS AVE,,NEW HAVEN,CT,06519,,Unknown,41.29758234,-72.93888952
-72.958774203866369,41.343939480622566,75,CLARENCE ROGERS SCHOOL,195 WILMOT RD,,NEW HAVEN,CT,06511,,Unknown,41.34393948,-72.95877420
-72.940088879098425,41.33385870191762,76,KING/ROBINSON MAGNET SCHOOL,150 FOURNIER ST,,NEW HAVEN,CT,06511,,Unknown,41.33385870,-72.94008888
-72.965700553837451,41.327327231666459,77,MAURO-SHERIDAN MAGNET SCHOOL,191 FOUNTAIN ST,,NEW HAVEN,CT,06515,,Unknown,41.32732723,-72.96570055
-72.113549223417863,41.359416286032854,78,SHORELINE ACADEMY,90 CEDAR GROVE AVE,,NEW LONDON,CT,06320,,Unknown,41.35941629,-72.11354922
-73.271168773919726,41.409919875701746,79,NEWTOWN HIGH SCHOOL,12 BERKSHIRE RD,,SANDY HOOK,CT,06482,1398,Unknown,41.40991988,-73.27116877
-73.188356090061461,41.987589287215883,80,BRIDGES II,128 GREENWOODS RD EAST,,NORFOLK,CT,06058,,Unknown,41.98758929,-73.18835609
-73.402225005279718,41.157165054923382,81,CRANBURY ELEMENTARY SCHOOL,5 KNOWALOT LN,,NORWALK,CT,06851,1399,Unknown,41.15716506,-73.40222501
-73.435816031784384,41.077669476365315,82,ROTON MIDDLE SCHOOL,201 HIGHLAND AVE,,NORWALK,CT,06854,,Unknown,41.07766948,-73.43581603
-73.389489837985593,41.136065499223491,83,WOLFPIT SCHOOL,1 STARLIGHT DR,,NORWALK,CT,06851,3443,Unknown,41.13606550,-73.38948984
-72.101981267321605,41.550115116619395,84,SAMUEL HUNTINGTON SCHOOL,80 WEST TOWN ST,,NORWICH,CT,06360,2209,Unknown,41.55011512,-72.10198127
-72.062460944916609,41.522706466030627,85,THAMES RIVER ACADEMY,526 EAST MAIN ST,,NORWICH,CT,06360,2425,Unknown,41.52270647,-72.06246094
-73.004320733115321,41.292029623768201,86,RACE BROOK SCHOOL,107 GRANNIS RD,,ORANGE,CT,06477,1911,Unknown,41.29202962,-73.00432073
-73.14068780289972,41.422051493581591,87,GREAT OAK SCHOOL,50 GREAT OAK RD,,OXFORD,CT,06478,,Unknown,41.42205149,-73.14068780
-71.916277846945036,41.676002097918513,88,EARLY CHILDHOOD CENTER,651 NORWICH RD,,PLAINFIELD,CT,06374,,Unknown,41.67600210,-71.91627785
-72.638163802617385,41.577161311645284,89,BROWNSTONE INTERMEDIATE SCHOOL,314 MAIN ST,,PORTLAND,CT,06480,,Unknown,41.57716131,-72.63816380
-72.132898172312764,41.341345530971523,90,THE FRIENDSHIP SCHOOL,24 ROPE FERRY RD,,WATERFORD,CT,06385,,Unknown,41.34134553,-72.13289817
-71.920538095556651,41.921458073131646,91,PUTNAM MIDDLE SCHOOL,35 WICKER ST,,PUTNAM,CT,06260,1443,Unknown,41.92145807,-71.92053810
-73.384729721899134,41.309114410701568,92,REDDING ELEMENTARY SCHOOL,33 LONETOWN RD,,REDDING,CT,06875,,Unknown,41.30911441,-73.38472972
-73.307970562691253,41.554857972917148,93,BOOTH FREE SCHOOL,14 SOUTH ST,,ROXBURY,CT,06783,1706,Unknown,41.55485797,-73.30797056
-72.725391554276769,41.518248293723843,94,JOHN LYMAN SCHOOL,106 WAY RD,,MIDDLEFIELD,CT,06455,1059,Unknown,41.51824829,-72.72539155
-72.977415976266229,41.500820226572273,95,COMMUNITY SCHOOL,12 CENTER ST,,PROSPECT,CT,06712,1605,Unknown,41.50082023,-72.97741598
-72.284235561921605,41.29570395507352,96,MILE CREEK SCHOOL,250 MILE CREEK RD,,OLD LYME,CT,06371,1730,Unknown,41.29570396,-72.28423556
-72.365025336849783,41.664342303954243,97,RHAM HIGH SCHOOL,85 WALL ST,,HEBRON,CT,06248,1500,Unknown,41.66434230,-72.36502534
-72.273781411682762,41.487992304101624,98,SALEM ELEMENTARY SCHOOL,200 HARTFORD RD,,SALEM,CT,06420,3804,Unknown,41.48799230,-72.27378141
-73.056389966923405,41.402996006060903,99,PAUL CHATFIELD SCHOOL,51 SKOKORAT ST,,SEYMOUR,CT,06483,3826,Unknown,41.40299601,-73.05638997
-73.471328002984933,41.882531304176382,100,SHARON CENTER SCHOOL,80 HILLTOP RD,,SHARON,CT,06069,2121,Unknown,41.88253130,-73.47132800
-73.135409683609964,41.315637562223742,101,ELIZABETH SHELTON SCHOOL,138 WILLOUGHBY RD,,SHELTON,CT,06484,5951,Unknown,41.31563756,-73.13540968
-73.16987022682946,41.304309779972414,102,MOHEGAN SCHOOL,47 MOHEGAN RD,,SHELTON,CT,06484,2443,Unknown,41.30430978,-73.16987023
-73.495931451375327,41.578208025380093,103,SHERMAN SCHOOL,2 ROUTE 37 EAST,,SHERMAN,CT,06784,1422,Unknown,41.57820803,-73.49593145
-72.82261657719323,41.840807449404338,104,LATIMER LANE SCHOOL,33 MOUNTAIN VIEW RD,,WEATOGUE,CT,06089,9721,Unknown,41.84080745,-72.82261658
-72.461395315841116,41.98002270538359,105,SOMERS ELEMENTARY SCHOOL,NINTH DISTRICT RD,,SOMERS,CT,06071,9609,Unknown,41.98002271,-72.46139532
-72.854922026430359,41.600530670753926,106,HATTON SCHOOL,50 SPRING LAKE RD,,SOUTHINGTON,CT,06489,4424,Unknown,41.60053067,-72.85492203
-73.54758488003813,41.057750225992208,107,HART SCHOOL,61 ADAMS AVE,,STAMFORD,CT,06902,3018,Unknown,41.05775023,-73.54758488
-73.546895900425397,41.122631656725616,108,NORTHEAST SCHOOL,82 SCOFIELDTOWN RD,,STAMFORD,CT,06903,4020,Unknown,41.12263166,-73.54689590
-73.542209429821298,41.099080181305396,109,TURN OF RIVER SCHOOL,117 VINE RD,,STAMFORD,CT,06905,2016,Unknown,41.09908018,-73.54220943
-71.944246124958681,41.357720715938342,110,MYSTIC MIDDLE SCHOOL,204 MISTUXET AVE,,MYSTIC,CT,06355,3009,Unknown,41.35772072,-71.94424613
-73.126195606741817,41.154176124828325,111,LORDSHIP SCHOOL,254 CROWN ST,,STRATFORD,CT,06615,7511,Unknown,41.15417612,-73.12619561
-72.663286231774123,41.98507559216489,112,SUFFIELD MIDDLE SCHOOL,350 MOUNTAIN RD,,SUFFIELD,CT,06078,2078,Unknown,41.98507559,-72.66328623
-73.091888814317315,41.656944337811012,113,BLACK ROCK SCHOOL,57 BRANCH RD,,THOMASTON,CT,06787,1916,Unknown,41.65694434,-73.09188881
-72.371316923737027,41.869752214892856,114,TOLLAND MIDDLE SCHOOL,96 OLD POST RD,,TOLLAND,CT,06084,3300,Unknown,41.86975221,-72.37131692
-73.132691283975532,41.81304022202869,115,FORBES SCHOOL,500 MIGEON AVE,,TORRINGTON,CT,06790,4641,Unknown,41.81304022,-73.13269128
-73.209180517067182,41.23144416721459,116,FRENCHTOWN ELEMENTARY SCHOOL,30 FRENCHTOWN RD,,TRUMBULL,CT,06611,,Unknown,41.23144417,-73.20918052
-72.470273629924066,41.810910824375071,117,LAKE STREET SCHOOL,201 LAKE ST,,VERNON,CT,06066,6245,Unknown,41.81091082,-72.47027363
-72.480425894839129,41.856517744898042,118,ROCKVILLE HIGH SCHOOL,70 LOVELAND HILL,,ROCKVILLE,CT,06066,2304,Unknown,41.85651774,-72.48042589
-72.82337699984862,41.463625999740145,119,A.R.T.S. ACADEMY,75 PARKER ST,,WALLINGFORD,CT,06492,,Unknown,41.46362600,-72.82337700
-73.005863620809407,41.552566029998331,120,H. S. CHASE SCHOOL,40 WOODTICK RD,,WATERBURY,CT,06705,2207,Unknown,41.55256603,-73.00586362
-73.092113002712892,41.585900732632751,121,SWIFT MIDDLE SCHOOL,250 COLONIAL ST,,OAKVILLE,CT,06779,2008,Unknown,41.58590073,-73.09211300
-72.979216578182502,41.241922825777863,122,SETH G. HALEY SCHOOL,148 SOUTH ST,,WEST HAVEN,CT,06516,7149,Unknown,41.24192283,-72.97921658
-73.378915477167482,41.210894304128885,123,WESTON HIGH SCHOOL,115 SCHOOL RD,,WESTON,CT,06883,1623,Unknown,41.21089430,-73.37891548
-73.350647162836253,41.17818527872771,124,COLEYTOWN MIDDLE SCHOOL,255 NORTH AVE,,WESTPORT,CT,06880,1531,Unknown,41.17818528,-73.35064716
-73.34926874135931,41.176123393180092,125,STEPPING STONES PRESCHOOL,65 EASTON ST,,WESTPORT,CT,06880,,Unknown,41.17612339,-73.34926874
-73.434649613788622,41.175747988279113,126,MILLER-DRISCOLL SCHOOL,217 WOLFPIT RD,,WILTON,CT,06897,3426,Unknown,41.17574799,-73.43464961
-72.214534606786629,41.723770208028725,127,WINDHAM HIGH SCHOOL,355 HIGH ST,,WILLIMANTIC,CT,06226,1306,Unknown,41.72377021,-72.21453461
-72.959368805026315,41.624380843401241,128,ALCOTT SCHOOL,1490 WOODTICK RD,,WOLCOTT,CT,06716,1538,Unknown,41.62438084,-72.95936880
-71.975077399202576,41.951456794595458,129,WOODSTOCK ACADEMY,57 ACADEMY RD,,WOODSTOCK,CT,06281,2303,Unknown,41.95145679,-71.97507740
-73.009994578387023,41.609735630295177,130,WAKELEE SCHOOL,12 HEMPEL DR,,WOLCOTT,CT,06716,1799,Unknown,41.60973563,-73.00999458
-73.432824836297129,41.211394944121423,131,WILTON HIGH SCHOOL,395 DANBURY RD,,WILTON,CT,06897,2006,Unknown,41.21139494,-73.43282484
-72.157223501763156,41.74102582658071,132,NORTH WINDHAM SCHOOL,112 JORDAN LN,,NORTH WINDHAM,CT,06256,1217,Unknown,41.74102583,-72.15722350
-73.31685497058038,41.143353491770256,133,LONG LOTS SCHOOL,13 HYDE LN,,WESTPORT,CT,06880,3915,Unknown,41.14335349,-73.31685497
-73.100969010011738,41.594254681708264,134,WATERTOWN HIGH SCHOOL,324 FRENCH ST,,WATERTOWN,CT,06795,2929,Unknown,41.59425468,-73.10096901
-72.454910994346847,41.298826767241565,135,WESTBROOK MIDDLE SCHOOL,156 MCVEAGH RD,,WESTBROOK,CT,06498,1512,Unknown,41.29882677,-72.45491099
-73.380092365070539,41.21378355336833,136,WESTON MIDDLE SCHOOL,135 SCHOOL RD,,WESTON,CT,06883,1623,Unknown,41.21378355,-73.38009236
-72.161958953043211,41.987390420131817,137,UNION ELEMENTARY SCHOOL,18 KINNEY HOLLOW RD,,UNION,CT,06076,4922,Unknown,41.98739042,-72.16195895
-72.462335251270815,41.867804554036979,138,MAPLE STREET SCHOOL,20 MAPLE ST,,ROCKVILLE,CT,06066,3026,Unknown,41.86780455,-72.46233525
-73.139565858177775,41.202601070982666,139,NICHOLS SCHOOL,396 NICHOLS AVE,,STRATFORD,CT,06614,3906,Unknown,41.20260107,-73.13956586
-73.433191676954266,41.204210073236368,140,CIDER MILL SCHOOL,240 SCHOOL RD,,WILTON,CT,06897,2507,Unknown,41.20421007,-73.43319168
-72.49145850160852,41.855931294293839,141,SKINNER ROAD SCHOOL,90 SKINNER RD,,VERNON,CT,06066,2723,Unknown,41.85593129,-72.49145850
-72.686704319748515,41.984999373722189,142,A. WARD SPAULDING SCHOOL,945 MOUNTAIN RD,,SUFFIELD,CT,06078,2014,Unknown,41.98499937,-72.68670432
-73.094886534386035,41.657303670028398,143,THOMASTON HIGH SCHOOL,185 BRANCH RD,,THOMASTON,CT,06787,1984,Unknown,41.65730367,-73.09488653
-72.878100243631309,41.570058685559957,144,SOUTH END SCHOOL,514 SOUTH END RD,,PLANTSVILLE,CT,06479,1855,Unknown,41.57005869,-72.87810024
-72.333823955611024,41.861042282675271,145,BIRCH GROVE PRIMARY SCHOOL,247 RHODES RD,,TOLLAND,CT,06084,,Unknown,41.86104228,-72.33382396
-73.542660372378236,41.051382149966287,146,PRESCHOOL TEAM,888 WASHINGTON BLVD,,STAMFORD,CT,06901,9310,Unknown,41.05138215,-73.54266037
-73.564293166696245,41.089065563924692,147,ROXBURY SCHOOL,751 WESTHILL RD,,STAMFORD,CT,06902,1413,Unknown,41.08906556,-73.56429317
-72.824375843570294,41.491003355720352,148,HARVEST PARK,415 CHURCH ST,,WALLINGFORD,CT,06492,,Unknown,41.49100336,-72.82437584
-73.565792877938918,41.091607192817719,149,WESTHILL HIGH SCHOOL,125 ROXBURY RD,,STAMFORD,CT,06902,1215,Unknown,41.09160719,-73.56579288
-73.11800821210926,41.320061027894155,150,SHELTON HIGH SCHOOL,120 MEADOW ST,,SHELTON,CT,06484,2276,Unknown,41.32006103,-73.11800821
-72.803642770597321,41.881039646362638,151,CENTRAL SCHOOL,29 MASSACO ST,,SIMSBURY,CT,06070,2118,Unknown,41.88103965,-72.80364277
-73.123335285994642,41.803509081079255,152,VOGEL-WETMORE SCHOOL,68 CHURCH ST,,TORRINGTON,CT,06790,5217,Unknown,41.80350908,-73.12333529
-71.843126667061995,41.370216392872294,153,PAWCATUCK MIDDLE SCHOOL,40 FIELD ST,,PAWCATUCK,CT,06359,2159,Unknown,41.37021639,-71.84312667
-72.462029855893093,41.977195968019544,154,MABELLE B. AVERY MIDDLE SCHOOL,NINTH DISTRICT RD,,SOMERS,CT,06071,9609,Unknown,41.97719597,-72.46202986
-73.098807648654031,41.38511191518279,155,SEYMOUR HIGH SCHOOL,2 BOTSFORD RD,,SEYMOUR,CT,06483,2302,Unknown,41.38511192,-73.09880765
-72.768001166620479,41.910276821018556,156,TARIFFVILLE SCHOOL,42 WINTHROP ST,,TARIFFVILLE,CT,06081,9623,Unknown,41.91027682,-72.76800117
-72.327709498294666,41.319143799446863,157,LYME-OLD LYME MIDDLE SCHOOL,53 LYME ST,,OLD LYME,CT,06371,2335,Unknown,41.31914380,-72.32770950
-73.074027868391397,41.291392478380203,158,SUNNYSIDE SCHOOL,418 RIVER RD,,SHELTON,CT,06484,4524,Unknown,41.29139248,-73.07402787
-73.199707785286023,41.639157493323694,159,BETHLEHEM ELEMENTARY SCHOOL,92 EAST ST,,BETHLEHEM,CT,06751,1802,Unknown,41.63915749,-73.19970779
-72.366501673813161,41.663776469408617,160,RHAM MIDDLE SCHOOL,25 RHAM RD,,HEBRON,CT,06248,1500,Unknown,41.66377647,-72.36650167
-72.561189444637137,41.498091267098346,161,HADDAM ELEMENTARY SCHOOL,272 ROUTE 154,,HIGGANUM,CT,06441,4336,Unknown,41.49809127,-72.56118944
-72.640452097885998,41.743756669234926,162,CONNECTICUT RIVER ACADEMY,ONE RIVERSIDE DR,,EAST HARTFORD,CT,06118,,Unknown,41.74375667,-72.64045210
-72.081324107921205,41.703399999810188,163,SCOTLAND ELEMENTARY SCHOOL,68 BROOK RD,,SCOTLAND,CT,06264,0097,Unknown,41.70340000,-72.08132411
-73.033583910768812,41.5341279009819,164,HOPEVILLE SCHOOL,2 CYPRESS ST,,WATERBURY,CT,06706,2101,Unknown,41.53412790,-73.03358391
-73.046317694006348,41.29015223863496,165,TURKEY HILL SCHOOL,441 TURKEY HILL RD,,ORANGE,CT,06477,2218,Unknown,41.29015224,-73.04631769
-71.896185182999773,41.917730731288259,166,HELPING HANDS,32 NEWPORT AVE,,PUTNAM,CT,06260,,Unknown,41.91773073,-71.89618518
-73.118659000212631,41.437510999632991,167,OXFORD CENTER SCHOOL,462 OXFORD RD,,OXFORD,CT,06478,,Unknown,41.43751100,-73.11865900
-73.081893419945345,41.309506186861086,168,LAFAYETTE SCHOOL,54 GROVE ST,,SHELTON,CT,06484,4106,Unknown,41.30950619,-73.08189342
-72.060796864583608,41.53086000028884,169,HICKORY STREET SCHOOL,201 HICKORY ST,,NORWICH,CT,06360,,Unknown,41.53086000,-72.06079687
-73.454394151069152,41.116051963027701,170,FOX RUN ELEMENTARY SCHOOL,228 FILLOW ST,,NORWALK,CT,06850,2719,Unknown,41.11605196,-73.45439415
-73.227386733410981,41.835160714195638,171,GOSHEN CENTER SCHOOL,50 NORTH ST,,GOSHEN,CT,06756,1509,Unknown,41.83516071,-73.22738673
-71.985109701751298,41.48932201020267,172,PRESTON PLAINS SCHOOL,ROUTE 164,,PRESTON,CT,06365,,Unknown,41.48932201,-71.98510970
-73.3325259450163,42.032808232114292,173,NORTH CANAAN ELEMENTARY SCHOOL,90 PEASE ST,,CANAAN,CT,06018,2026,Unknown,42.03280823,-73.33252595
-72.10332254589872,41.555087533862661,174,DEBORAH-TENNANT ZINEWICZ  SCHOOL,30 CASE ST,,NORWICH,CT,06360,,Unknown,41.55508753,-72.10332255
-72.858415630876607,41.669472087267081,175,LINDEN STREET SCHOOL,69 LINDEN ST,,PLAINVILLE,CT,06062,2352,Unknown,41.66947209,-72.85841563
-73.300417724298484,41.4118525682415,176,NEWTOWN MIDDLE SCHOOL,11 QUEEN ST,,NEWTOWN,CT,06471,2172,Unknown,41.41185257,-73.30041772
-72.101249589696749,41.335384436842332,177,HARBOR SCHOOL,432 MONTAUK AVE,,NEW LONDON,CT,06320,4698,Unknown,41.33538444,-72.10124959
-72.940522731838541,41.305737429438864,178,HILL REGIONAL CAREER HIGH SCHOOL,140 LEGION AVE,,NEW HAVEN,CT,06519,,Unknown,41.30573743,-72.94052273
-72.112068997785968,41.510144043213074,179,THOMAS W. MAHAN SCHOOL,94 SALEM TURNPIKE,,NORWICH,CT,06360,6496,Unknown,41.51014404,-72.11206900
-72.925870000400153,41.299906999608424,180,HEADSTART,54 MEADOW ST,,NEW HAVEN,CT,06515,1006,Unknown,41.29990700,-72.92587000
-73.392483678378994,41.620252186289406,181,SCHAGHTICOKE MIDDLE SCHOOL,23 HIPP RD,,NEW MILFORD,CT,06776,2223,Unknown,41.62025219,-73.39248368
-72.959828543852154,41.328415446415761,182,EARLY LEARNING CENTER,495 BLAKE ST,,NEW HAVEN,CT,06515,,Unknown,41.32841545,-72.95982854
-73.23039994699991,41.345385180381811,183,FAWN HOLLOW ELEMENTARY SCHOOL,375 FAN HILL RD,,MONROE,CT,06468,1360,Unknown,41.34538518,-73.23039995
-73.047736268414042,41.496087599163445,184,SCHOOL READINESS PROGRAM,170 COEN ST,,NAUGATUCK,CT,06770,,Unknown,41.49608760,-73.04773627
-73.233548334987631,41.343815609802618,185,JOCKEY HOLLOW SCHOOL,365 FAN HILL RD,,MONROE,CT,06468,,Unknown,41.34381561,-73.23354833
-73.050559727749203,41.488381635004487,186,CENTRAL AVENUE SCHOOL,28 CENTRAL AVE,,NAUGATUCK,CT,06770,4613,Unknown,41.48838164,-73.05055973
-73.4386509997438,41.066714999997316,187,ROWAYTON SCHOOL,1 ROTON AVE,,ROWAYTON,CT,06850,,Unknown,41.06671500,-73.43865100
-72.669737409653692,41.543385248730317,188,SNOW SCHOOL,299 WADSWORTH ST,,MIDDLETOWN,CT,06457,4019,Unknown,41.54338525,-72.66973741
-72.939086866165894,41.309851777437643,189,DWIGHT EARLY CHILDHOOD PROGRAM,1324 CHAPEL ST,,NEW HAVEN,CT,06511,,Unknown,41.30985178,-72.93908687
-73.012940510096428,41.219402801697981,190,JOSEPH A. FORAN HIGH SCHOOL,80 FORAN DR,,MILFORD,CT,06460,7799,Unknown,41.21940280,-73.01294051
-72.758016849198214,41.660448983234062,191,SMITH SCHOOL,142 RUTHERFORD ST,,NEW BRITAIN,CT,06051,3299,Unknown,41.66044898,-72.75801685
-72.79241538326329,41.52969916978094,192,ISRAEL PUTNAM SCHOOL,133 PARKER AVE,,MERIDEN,CT,06450,5925,Unknown,41.52969917,-72.79241538
-73.073977991990716,41.211529829837843,193,MEADOWSIDE SCHOOL,80 SEEMAN'S LN,,MILFORD,CT,06460,4337,Unknown,41.21152983,-73.07397799
-73.491022945352597,41.1314852223652,194,SOUTH SCHOOL,8 FARM RD,,NEW CANAAN,CT,06840,6697,Unknown,41.13148522,-73.49102294
-73.5261037527859,41.139271842221774,195,WEST SCHOOL,769 PONUS RIDGE,,NEW CANAAN,CT,06840,3413,Unknown,41.13927184,-73.52610375
-71.995579340114432,41.437957200964092,196,LEDYARD HIGH SCHOOL,24 GALLUP HILL RD,,LEDYARD,CT,06339,1512,Unknown,41.43795720,-71.99557934
-72.783649730850357,41.535411348654861,197,ROGER SHERMAN SCHOOL,64 NORTH PEARL ST,,MERIDEN,CT,06450,4419,Unknown,41.53541135,-72.78364973
-72.679087435236909,41.579322032685695,198,KEIGWIN MIDDLE SCHOOL,99 SPRUCE ST,,MIDDLETOWN,CT,06457,1838,Unknown,41.57932203,-72.67908743
-72.493588990139756,41.79326847306163,199,BUCKLEY SCHOOL,250 VERNON ST,,MANCHESTER,CT,06040,3473,Unknown,41.79326847,-72.49358899
-72.67827100010652,41.767449000071338,200,SPORTS AND MEDICAL SCIENCES ACADEMY,275 ASYLUM ST,,HARTFORD,CT,06103,,Unknown,41.76744900,-72.67827100
-72.682552946661133,41.795303768354302,201,SIMPSON-WAVERLY SCHOOL,55 WAVERLY ST,,HARTFORD,CT,06112,1625,Unknown,41.79530377,-72.68255295
-72.601597203647998,41.276153823340337,202,ISLAND AVENUE ELEMENTARY SCHOOL,20 ISLAND AVE,,MADISON,CT,06443,3013,Unknown,41.27615382,-72.60159720
-72.695054676032441,41.735131079036137,203,KENNELLY SCHOOL,180 WHITE ST,,HARTFORD,CT,06114,2242,Unknown,41.73513108,-72.69505468
-72.695801426294736,41.770357721431765,204,WEST MIDDLE SCHOOL,927 ASYLUM AVE,,HARTFORD,CT,06105,2429,Unknown,41.77035772,-72.69580143
-72.926476529268371,41.431634991261888,205,WEST WOODS SCHOOL,350 WEST TODD ST,,HAMDEN,CT,06518,1129,Unknown,41.43163499,-72.92647653
-72.674872929741866,41.730569785966907,206,NAYLOR SCHOOL,639 FRANKLIN AVE,,HARTFORD,CT,06114,3030,Unknown,41.73056979,-72.67487293
-72.688996295042955,41.758927518090559,207,SANCHEZ SCHOOL,176 BABCOCK ST,,HARTFORD,CT,06106,1357,Unknown,41.75892752,-72.68899629
-72.707992507348308,41.800261892672268,208,CULINARY ARTS ACADEMY,415 GRANBY ST,,HARTFORD,CT,06112,,Unknown,41.80026189,-72.70799251
-73.001426633832068,41.227674178620475,209,EAST SHORE MIDDLE SCHOOL,240 CHAPEL ST,,MILFORD,CT,06460,7920,Unknown,41.22767418,-73.00142663
-71.998156537194404,41.347608437579368,210,CARL C. CUTLER MIDDLE SCHOOL,160 FISHTOWN RD,,MYSTIC,CT,06355,2012,Unknown,41.34760844,-71.99815654
-72.061800491799204,41.347539279714056,211,CATHERINE KOLNASKI MAGNET SCHOOL,500 POQUONNOCK RD,,GROTON,CT,06340,,Unknown,41.34753928,-72.06180049
-72.066185588793871,41.37385798795583,212,MARY MORRISSON SCHOOL,154 TOLL GATE ST,,GROTON,CT,06340,3444,Unknown,41.37385799,-72.06618559
-72.238930369341006,41.622416513611256,213,LYMAN MEMORIAL HIGH SCHOOL,917 EXETER RD,,LEBANON,CT,06249,1742,Unknown,41.62241651,-72.23893037
-72.810387321717485,41.968109953711462,214,KELLY LANE INTERMEDIATE SCHOOL,60 KELLY LN,,GRANBY,CT,06035,2920,Unknown,41.96810995,-72.81038732
-73.619458259091346,41.03171452630437,215,JULIAN CURTISS SCHOOL,180 EAST ELM ST,,GREENWICH,CT,06830,5755,Unknown,41.03171453,-73.61945826
-72.933499937671968,41.354698213251993,216,CHURCH STREET SCHOOL,95 CHURCH ST,,HAMDEN,CT,06514,3436,Unknown,41.35469821,-72.93349994
-72.568989367265431,42.015967610217103,217,PRUDENCE CRANDALL SCHOOL,150 BRAINARD RD,,ENFIELD,CT,06082,2649,Unknown,42.01596761,-72.56898937
-73.576643422356028,41.051561278730105,218,INTERNATIONAL SCHOOL AT DUNDEE,55 FLORENCE RD,,GREENWICH,CT,06878,,Unknown,41.05156128,-73.57664342
-73.303304251290115,41.182803185019054,219,DWIGHT ELEMENTARY SCHOOL,1600 REDDING RD,,FAIRFIELD,CT,06824,,Unknown,41.18280318,-73.30330425
-72.519092260599336,41.765832750181346,220,ELISABETH M. BENNET ACADEMY,1151 MAIN ST,,MANCHESTER,CT,06040,,Unknown,41.76583275,-72.51909226
-72.203366158321501,41.322703662344168,221,NIANTIC CENTER SCHOOL,7 WEST MAIN ST,,NIANTIC,CT,06357,2319,Unknown,41.32270366,-72.20336616
-73.287210841007493,41.198091461951435,222,BURR ELEMENTARY SCHOOL,1960 BURR ST,,FAIRFIELD,CT,06824,,Unknown,41.19809146,-73.28721084
-72.912053830020227,41.37972000197658,223,HAMDEN MIDDLE SCHOOL,2623 DIXWELL AVE,,HAMDEN,CT,06517,3217,Unknown,41.37972000,-72.91205383
-73.063588548872417,41.318268382280053,224,BRADLEY SCHOOL,155 DAVID HUMPHREYS RD,,DERBY,CT,06418,2299,Unknown,41.31826838,-73.06358855
-72.500332498945625,41.871589770851301,225,WINDERMERE INTERMEDIATE SCHOOL,2 ABBOTT RD,,ELLINGTON,CT,06029,,Unknown,41.87158977,-72.50033250
-72.537669045290158,41.696463018053919,226,EASTBURY SCHOOL,1389 NEIPSIC RD,,GLASTONBURY,CT,06033,3414,Unknown,41.69646302,-72.53766905
-72.55707457233359,41.984386508230841,227,ELI WHITNEY SCHOOL,94 MIDDLE RD,,ENFIELD,CT,06082,4544,Unknown,41.98438651,-72.55707457
-72.631853465764777,41.736613607831771,228,HOCKANUM SCHOOL,191 MAIN ST,,EAST HARTFORD,CT,06118,3603,Unknown,41.73661361,-72.63185347
-72.842593089199681,41.315609030332553,229,HAYS SCHOOL,1 MAPLE ST,,EAST HAVEN,CT,06512,,Unknown,41.31560903,-72.84259309
-73.485644416756372,41.103058232551462,230,OX RIDGE ELEMENTARY SCHOOL,395 MANSFIELD AVE,,DARIEN,CT,06820,2113,Unknown,41.10305823,-73.48564442
-73.451932754293125,41.414998567629823,231,HAYESTOWN AVENUE SCHOOL,42 HAYESTOWN AVE,,DANBURY,CT,06811,4881,Unknown,41.41499857,-73.45193275
-73.203298638821082,41.229691580102383,232,RISE TRANSITIONAL PROGRAM,25 OAKVIEW DR,,TRUMBULL,CT,06611,,Unknown,41.22969158,-73.20329864
-72.832502918874582,41.328302891765077,233,EAST HAVEN HIGH SCHOOL,35 WHEELBARROW LN,,EAST HAVEN,CT,06513,,Unknown,41.32830289,-72.83250292
-72.312609224635992,41.782237251248205,234,COVENTRY HIGH SCHOOL,78 RIPLEY HILL RD,,COVENTRY,CT,06238,1653,Unknown,41.78223725,-72.31260923
-72.901994049585653,41.499855155990701,235,HUMISTON SCHOOL,30 SPRING ST,,CHESHIRE,CT,06410,2717,Unknown,41.49985516,-72.90199405
-72.919410537066597,41.822196984203515,236,CANTON INTERMEDIATE SCHOOL,39 DYER AVE,,CANTON,CT,06019,,Unknown,41.82219698,-72.91941054
-73.443163438042177,41.387165642080788,237,SOUTH STREET SCHOOL,129 SOUTH ST,,DANBURY,CT,06810,8039,Unknown,41.38716564,-73.44316344
-72.954383955555045,41.672760159753636,238,CLARA T. O'CONNELL SCHOOL,120 PARK ST,,BRISTOL,CT,06010,6033,Unknown,41.67276016,-72.95438396
-73.209206661258349,41.214264741025033,239,BRIDGEPORT LEARNING CENTER,280 TESINY AVE,,BRIDGEPORT,CT,06606,,Unknown,41.21426474,-73.20920666
-72.561784455887903,41.760685750247205,240,GREAT PATH ACADEMY AT MCC,MS2,,MANCHESTER,CT,06045,,Unknown,41.76068575,-72.56178446
-72.788793497721713,41.28440114159946,241,MARY R. TISKO SCHOOL,118 DAMASCUS RD,,BRANFORD,CT,06405,3904,Unknown,41.28440114,-72.78879350
-72.658357625903648,41.619574885272812,242,EDNA C. STEVENS SCHOOL,25 COURT ST,,CROMWELL,CT,06416,1617,Unknown,41.61957488,-72.65835763
-73.174331437046135,41.183100106984398,243,BARNUM SCHOOL,495 WATERVIEW AVE,,BRIDGEPORT,CT,06608,1803,Unknown,41.18310011,-73.17433144
-71.935534713356276,41.785275679129313,244,BROOKLYN MIDDLE SCHOOL,119 GORMAN RD,,BROOKLYN,CT,06234,1805,Unknown,41.78527568,-71.93553471
-72.784696143312317,41.637089373675735,245,MARY E. GRISWOLD SCHOOL,133 HEATHER LN,,KENSINGTON,CT,06037,2056,Unknown,41.63708937,-72.78469614
-73.208853805958313,41.202712155241841,246,MADISON SCHOOL,376 WAYNE ST,,BRIDGEPORT,CT,06609,,Unknown,41.20271216,-73.20885381
-73.393941894003149,41.37831844004404,247,BETHEL HIGH SCHOOL,300 WHITTLESEY DR,,BETHEL,CT,06801,1596,Unknown,41.37831844,-73.39394189
-72.952196625373915,41.661406143378883,248,SOUTH SIDE SCHOOL,TUTTLE RD,,BRISTOL,CT,06010,7147,Unknown,41.66140614,-72.95219662
-73.179528722572456,41.186694393231733,249,NEW BEGINNINGS INC. FAMILY ACADEMY,510 BARNUM AVE,,BRIDGEPORT,CT,06608,,Unknown,41.18669439,-73.17952872
-73.050852253828396,41.337719033706492,250,MEAD SCHOOL,75 FORD ST,,ANSONIA,CT,06401,2699,Unknown,41.33771903,-73.05085225
-72.723370530325667,41.837760487856258,251,LAUREL SCHOOL,ONE FILLEY ST,,BLOOMFIELD,CT,06002,1854,Unknown,41.83776049,-72.72337053
-73.188737053672071,41.177466000055915,252,PARENT-CHILDREN PROGRAM,948 MAIN ST,,BRIDGEPORT,CT,06604,,Unknown,41.17746600,-73.18873705
-72.907265321437421,41.371120983146909,253,WHITNEY HIGH SCHOOL EAST,261 SKIFF ST,,HAMDEN,CT,06517,,Unknown,41.37112098,-72.90726532
-72.078070535226971,41.510780193950836,254,INTEGRATED DAY CHARTER SCHOOL,68 THERMOS RD,,NORWICH,CT,06360,,Unknown,41.51078019,-72.07807053
-72.234125010161051,41.319818909714968,255,YORK CORRECTIONAL INSTITUTION,201 WEST MAIN ST,,NIANTIC,CT,06357,,Unknown,41.31981891,-72.23412501
-72.440938100912604,41.775527250282437,256,BOLTON CENTER SCHOOL,108 NOTCH RD,,BOLTON,CT,06043,7498,Unknown,41.77552725,-72.44093810
-72.853251136430742,41.772690085279237,257,THOMPSON BROOK SCHOOL,150 THOMPSON RD,,AVON,CT,06001,2208,Unknown,41.77269009,-72.85325114
-72.922336805998782,41.347215354704929,258,HIGHVILLE CHARTER SCHOOL,130 LEEDERHILL DR,,HAMDEN,CT,06517,,Unknown,41.34721536,-72.92233681
-72.691675098427027,41.763976473035882,259,BIRTH TO THREE PROGRAM,460 CAPITOL AVE,,HARTFORD,CT,06106,,Unknown,41.76397647,-72.69167510
-72.506865656324919,42.017380124992826,260,NORTHERN CORRECTIONAL INSTITUTION,287 BILTON RD,,SOMERS,CT,06071,,Unknown,42.01738013,-72.50686566
-73.076117472843066,41.929364543838687,261,EXPLORATIONS,71 SPENCER ST,,WINSTED,CT,06098,,Unknown,41.92936454,-73.07611747
-72.36635799092852,41.728503865161315,262,ANDOVER ELEMENTARY SCHOOL,35 SCHOOL RD,,ANDOVER,CT,06232,1526,Unknown,41.72850387,-72.36635799
-73.084316805975789,41.341174166954318,263,ANSONIA MIDDLE SCHOOL,115 HOWARD AVE,,ANSONIA,CT,06401,2738,Unknown,41.34117417,-73.08431681
-72.840065559877644,41.3850856441872,264,MILL ROAD SCHOOL,295 MILL RD,,NORTH HAVEN,CT,06473,,Unknown,41.38508564,-72.84006556
-72.752965220568456,41.621637760074634,265,BERLIN HIGH SCHOOL,139 PATTERSON WAY,,BERLIN,CT,06037,3146,Unknown,41.62163776,-72.75296522
-72.720649125156967,41.6149324193957,266,RICHARD D. HUBBARD SCHOOL,139 GROVE ST,,EAST BERLIN,CT,06023,1005,Unknown,41.61493242,-72.72064912
-73.392399564788036,41.380902340670559,267,BETHEL MIDDLE SCHOOL,600 WHITTLESEY DR,,BETHEL,CT,06801,1594,Unknown,41.38090234,-73.39239957
-72.710463426146134,41.825572056205488,268,METACOMET SCHOOL,185 SCHOOL ST,,BLOOMFIELD,CT,06002,2718,Unknown,41.82557206,-72.71046343
-72.42141595338353,41.760482165319729,269,BOLTON HIGH SCHOOL,72 BRANDY ST,,BOLTON,CT,06043,7697,Unknown,41.76048216,-72.42141595
-72.80626182392399,41.268172504757331,270,INDIAN NECK SCHOOL,12 MELROSE AVE,,BRANFORD,CT,06405,4620,Unknown,41.26817251,-72.80626182
-73.191061845227921,41.217345393874893,271,HALLEN SCHOOL,68 OMEGA AVE,,BRIDGEPORT,CT,06606,3099,Unknown,41.21734539,-73.19106184
-73.231951082376497,41.221048802060636,272,WINTHROP SCHOOL,85 ECKART ST,,BRIDGEPORT,CT,06606,1199,Unknown,41.22104880,-73.23195108
-73.186465162037564,41.165699695784383,273,THE UNIVERSITY SCHOOL,136 LAFAYETTE ST,,BRIDGEPORT,CT,06604,,Unknown,41.16569970,-73.18646516
-72.96524650861943,41.699224598636363,274,CHIPPENS HILL MIDDLE SCHOOL,551 PEACEDALE ST,,BRISTOL,CT,06010,8939,Unknown,41.69922460,-72.96524651
-72.949061240683648,41.681937096419915,275,CLARENCE A. BINGHAM SCHOOL,3 NORTH ST,,BRISTOL,CT,06010,4149,Unknown,41.68193710,-72.94906124
-72.917487892652105,41.688514860172688,276,STAFFORD SCHOOL,212 LOUISIANA AVE,,BRISTOL,CT,06010,4456,Unknown,41.68851486,-72.91748789
-73.359313000394593,41.955497489017944,277,LEE H. KELLOGG SCHOOL,47 MAIN ST,,FALLS VILLAGE,CT,06031,0237,Unknown,41.95549749,-73.35931300
-72.915084591180914,41.859849381443837,278,CHERRY BROOK PRIMARY SCHOOL,4 BARBOURTOWN RD,,CANTON,CT,06019,1702,Unknown,41.85984938,-72.91508459
-72.905927195883351,41.490021152154497,279,CHESHIRE HIGH SCHOOL,525 SOUTH MAIN ST,,CHESHIRE,CT,06410,3198,Unknown,41.49002115,-72.90592720
-72.519585038718503,41.297403200697204,280,JARED ELIOT SCHOOL,69 FAIRY DELL RD,,CLINTON,CT,06413,2403,Unknown,41.29740320,-72.51958504
-73.203298638821082,41.229691580102383,281,THERAPEUTIC DAY PROGRAM,25 OAKVIEW DR,,TRUMBULL,CT,06611,,Unknown,41.22969158,-73.20329864
-72.310642304798478,41.759913696659851,282,GEORGE HERSEY ROBERTSON SCHOOL,227 CROSS ST,,COVENTRY,CT,06238,3304,Unknown,41.75991370,-72.31064231
-72.658040795646173,41.624257960936177,283,WOODSIDE INTERMEDIATE SCHOOL,30 WOODSIDE DR,,CROMWELL,CT,06416,,Unknown,41.62425796,-72.65804080
-73.443927915740687,41.40220298477999,284,ELLSWORTH AVENUE SCHOOL,11 SEVENTH AVE,,DANBURY,CT,06810,6886,Unknown,41.40220299,-73.44392792
-73.42886715739337,41.433051185164118,285,STADLEY ROUGH SCHOOL,25 KAREN RD,,DANBURY,CT,06811,3218,Unknown,41.43305118,-73.42886716
-73.474428293430947,41.086394760010194,286,ROYLE ELEMENTARY SCHOOL,133 MANSFIELD AVE,,DARIEN,CT,06820,3525,Unknown,41.08639476,-73.47442829
-73.099105210936671,41.334251351318869,287,DERBY HIGH SCHOOL,8 NUTMEG AVE,,DERBY,CT,06418,1126,Unknown,41.33425135,-73.09910521
-72.866222706712506,41.286158780203607,288,ROBERT W. CARBONE SCHOOL,67 HUDSON ST,,EAST HAVEN,CT,06512,1524,Unknown,41.28615878,-72.86622271
-72.872865674011621,41.248307514080579,289,MOMAUGUIN SCHOOL,99 COSEY BEACH RD,,EAST HAVEN,CT,06512,1449,Unknown,41.24830751,-72.87286567
-72.213678898262515,41.350269711378132,290,EAST LYME MIDDLE SCHOOL,31 SOCIETY RD,,NIANTIC,CT,06357,1107,Unknown,41.35026971,-72.21367890
-72.213700187913275,41.348049341903675,291,INTEGRATED PRESCHOOL,29 SOCIETY RD,,EAST LYME,CT,06333,1107,Unknown,41.34804934,-72.21370019
-72.594948721706089,41.993884412935358,292,THOMAS G. ALCORN SCHOOL,1010 ENFIELD ST,,ENFIELD,CT,06082,3653,Unknown,41.99388441,-72.59494872
-72.597198749922313,41.979139107983485,293,ENFIELD HIGH SCHOOL,1264 ENFIELD ST,,ENFIELD,CT,06082,4919,Unknown,41.97913911,-72.59719875
-72.531019030903508,41.985782696714125,294,ENFIELD TRANSITIONAL LEARNING ACADEMY,426 HAZARD AVE,,ENFIELD,CT,06082,,Unknown,41.98578270,-72.53101903
-73.256880145602224,41.177041964315265,295,OSBORN HILL SCHOOL,760 STILLSON RD,,FAIRFIELD,CT,06824,,Unknown,41.17704196,-73.25688015
-73.263534089126892,41.149166720267999,296,FAIRFIELD LUDLOWE HIGH SCHOOL,785 UNQUOWA RD,,FAIRFIELD,CT,06824,,Unknown,41.14916672,-73.26353409
-72.577754359575977,41.724311491981837,297,SMITH MIDDLE SCHOOL,216 ADDISON RD,,GLASTONBURY,CT,06033,2571,Unknown,41.72431149,-72.57775436
-73.583465270206034,41.034196121853597,298,EASTERN MIDDLE SCHOOL,51 HENDRIE AVE,,RIVERSIDE,CT,06878,1809,Unknown,41.03419612,-73.58346527
-73.655114871853812,41.000497055294943,299,NEW LEBANON SCHOOL,25 MEAD AVE,,GREENWICH,CT,06830,6812,Unknown,41.00049705,-73.65511487
-71.980425177280097,41.597454617036988,300,GRISWOLD MIDDLE SCHOOL,211 SLATER AVE,,GRISWOLD,CT,06351,2525,Unknown,41.59745462,-71.98042518
-72.067550858585207,41.384702276688756,301,CHARLES BARNUM SCHOOL,68 BRIAR HILL RD,,GROTON,CT,06340,2651,Unknown,41.38470228,-72.06755086
-71.983693318991413,41.349295839131742,302,S. B. BUTLER SCHOOL,155 OCEAN VIEW AVE,,MYSTIC,CT,06355,2239,Unknown,41.34929584,-71.98369332
-72.718867621243703,41.337894978870224,303,A. BALDWIN MIDDLE SCHOOL,68 BULLARD DR,,GUILFORD,CT,06437,1553,Unknown,41.33789498,-72.71886762
-72.940227441243394,41.365527235993227,304,DUNBAR HILL SCHOOL,315 LN ST,,HAMDEN,CT,06514,2718,Unknown,41.36552724,-72.94022744
-72.896385996916194,41.346917151205616,305,RIDGE HILL SCHOOL,120 CAREW RD,,HAMDEN,CT,06517,2906,Unknown,41.34691715,-72.89638600
-72.9216469027823,41.42150571841421,306,ALICE PECK PRE-K PROGRAM,35 HILLFIELD RD,,HAMDEN,CT,06518,,Unknown,41.42150572,-72.92164690
-72.67260700780713,41.744978400932496,307,BURR SCHOOL,400 WETHERSFIELD AVE,,HARTFORD,CT,06114,1414,Unknown,41.74497840,-72.67260701
-72.696694926129908,41.785682303995202,308,M. L. KING SCHOOL,25 RIDGEFIELD ST,,HARTFORD,CT,06112,1835,Unknown,41.78568230,-72.69669493
-72.70750970540854,41.756651941933626,309,PARKVILLE COMMUNITY SCHOOL,1755 PARK ST,,HARTFORD,CT,06106,2160,Unknown,41.75665194,-72.70750971
-72.687795974404651,41.78251344563904,310,MILNER CORE KNOWLEDGE SCHOOL,104 VINE ST,,HARTFORD,CT,06112,2271,Unknown,41.78251345,-72.68779597
-72.675690828069207,41.794828761738017,311,WISH SCHOOL,350 BARBOUR ST,,HARTFORD,CT,06120,1002,Unknown,41.79482876,-72.67569083
-72.706575692014553,41.774008101992365,312,UNIVERSITY HIGH SCHOOL,1265 ASYLUM ST,,HARTFORD,CT,06103,,Unknown,41.77400810,-72.70657569
-72.701116621035169,41.764806209139294,313,HPHS NURSING ACADEMY,55 FOREST ST,,HARTFORD,CT,06105,,Unknown,41.76480621,-72.70111662
-72.069705719643196,41.45250667943975,314,GALES FERRY SCHOOL,1858 ROUTE 12,,GALES FERRY,CT,06335,1418,Unknown,41.45250668,-72.06970572
-72.067457249952099,41.451598260751211,315,LEDYARD MIDDLE SCHOOL,1860 ROUTE 12,,GALES FERRY,CT,06335,1127,Unknown,41.45159826,-72.06745725
-72.622629601574829,41.340347279903085,316,DR. ROBERT H. BROWN MIDDLE SCHOOL,980 DURHAM RD,,MADISON,CT,06443,,Unknown,41.34034728,-72.62262960
-72.494623050413395,41.772941102250115,317,HIGHLAND PARK SCHOOL,397 PORTER ST,,MANCHESTER,CT,06040,5512,Unknown,41.77294110,-72.49462305
-72.804772843391959,41.524129945340746,318,CASIMIR PULASKI SCHOOL,100 CLEARVIEW AVE,,MERIDEN,CT,06450,6414,Unknown,41.52412994,-72.80477284
-72.805337000701968,41.545500244640607,319,JOHN BARRY SCHOOL,124 COLUMBIA ST,,MERIDEN,CT,06450,3171,Unknown,41.54550024,-72.80533700
-72.779412271958734,41.517325701719813,320,THOMAS HOOKER SCHOOL,70 OVERLOOK RD,,MERIDEN,CT,06450,6933,Unknown,41.51732570,-72.77941227
-72.682437339711441,41.587133837156898,321,LAWRENCE SCHOOL,KAPLAN DR,,MIDDLETOWN,CT,06457,1837,Unknown,41.58713384,-72.68243734
-72.677108977097589,41.562997323068032,322,SPENCER SCHOOL,207 WESTFIELD ST,,MIDDLETOWN,CT,06457,2042,Unknown,41.56299732,-72.67710898
-73.097108306802852,41.192053795945981,323,WEST SHORE MIDDLE SCHOOL,70 KAY AVE,,MILFORD,CT,06460,5496,Unknown,41.19205380,-73.09710831
-73.050617178240145,41.23840959812452,324,ORANGE AVENUE SCHOOL,260 ORANGE AVE,,MILFORD,CT,06460,2196,Unknown,41.23840960,-73.05061718
-73.087835013175265,41.193025422585265,325,SIMON LAKE SCHOOL,59 DEVONSHIRE RD,,MILFORD,CT,06460,5998,Unknown,41.19302542,-73.08783501
-73.194880160690843,41.349196650205272,326,MASUK HIGH SCHOOL,1014 MONROE TURNPIKE,,MONROE,CT,06468,1931,Unknown,41.34919665,-73.19488016
-72.191499641695088,41.47123118137398,327,OAKDALE SCHOOL,30 INDIANA CIRCLE,,OAKDALE,CT,06370,1628,Unknown,41.47123118,-72.19149964
-73.057158748777169,41.490787522026551,328,SALEM SCHOOL,124 MEADOW ST,,NAUGATUCK,CT,06770,3040,Unknown,41.49078752,-73.05715875
-73.04325360756792,41.501653005082176,329,HEAD START,100 PROSPECT ST,,NAUGATUCK,CT,06770,,Unknown,41.50165301,-73.04325361
-72.792818209392806,41.654326075887752,330,VANCE SCHOOL,183 VANCE ST,,NEW BRITAIN,CT,06052,1634,Unknown,41.65432608,-72.79281821
-72.938028719349859,41.354175144167641,331,HYDE LEADERSHIP SCHOOL,306 CIRCULAR DR,,HAMDEN,CT,06514,4034,Unknown,41.35417514,-72.93802872
-72.931135331330438,41.331003704257625,332,LINCOLN-BASSETT SCHOOL,130 BASSETT ST,,NEW HAVEN,CT,06511,1858,Unknown,41.33100370,-72.93113533
-72.935478459663159,41.33503389279997,333,URBAN YOUTH CENTER MIDDLE SCHOOL,800 DIXWELL AVE,,NEW HAVEN,CT,06511,,Unknown,41.33503389,-72.93547846
-72.9034107003435,41.305501503991252,334,JOHN S. MARTINEZ SCHOOL,100 JAMES ST,,NEW HAVEN,CT,06513,,Unknown,41.30550150,-72.90341070
-72.938318342417517,41.300709240738911,335,JOHN C. DANIELS,569 CONGRESS AVE,,NEW HAVEN,CT,06519,,Unknown,41.30070924,-72.93831834
-72.104917686901672,41.356811277418558,336,JENNINGS SCHOOL,50 MERCER ST,,NEW LONDON,CT,06320,5659,Unknown,41.35681128,-72.10491769
-72.715722915080448,41.683082594386292,337,RUTH CHAFFEE SCHOOL,160 SUPERIOR AVE,,NEWINGTON,CT,06111,3955,Unknown,41.68308259,-72.71572292
-73.289754997894818,41.403731050747467,338,STARR,3 TRADES LN,,NEWTOWN,CT,06470,,Unknown,41.40373105,-73.28975500
-73.426188999722513,41.138878000319494,339,BRIGGS HIGH SCHOOL,350 MAIN ST,,NORWALK,CT,06851,1510,Unknown,41.13887800,-73.42618900
-73.421021231744419,41.116578006170073,340,JEFFERSON MAGNET SCHOOL,75 VAN BUREN AVE,,NORWALK,CT,06850,3306,Unknown,41.11657801,-73.42102123
-73.440591250186003,41.147455724102429,341,SILVERMINE ELEMENTARY SCHOOL,157 PERRY AVE,,NORWALK,CT,06850,1100,Unknown,41.14745572,-73.44059125
-72.062262687572911,41.522855704926883,342,BISHOP SCHOOL,526 MAIN ST,,NORWICH,CT,06360,5909,Unknown,41.52285570,-72.06226269
-72.072251289365454,41.503843178919624,343,VETERANS' MEMORIAL SCHOOL,80 CROUCH AVE,,NORWICH,CT,06360,7329,Unknown,41.50384318,-72.07225129
-72.080958294289815,41.530767669592308,344,NORWICH ADULT EDUCATION,182 CEDAR ST,,NORWICH,CT,06360,,Unknown,41.53076767,-72.08095829
-73.025987923803598,41.280248904263601,345,MARY L. TRACY SCHOOL,107 SCHOOLHOUSE LN,,ORANGE,CT,06477,2414,Unknown,41.28024890,-73.02598792
-73.137974432274177,41.382940815965924,346,OXFORD HIGH SCHOOL,61 QUAKER FARMS RD,,OXFORD,CT,06478,,Unknown,41.38294082,-73.13797443
-72.622779766772794,41.580975471340992,347,PORTLAND HIGH SCHOOL,95 HIGH ST,,PORTLAND,CT,06480,,Unknown,41.58097547,-72.62277977
-72.099792535996698,41.358753431725575,348,MULTICULTURAL MAGNET SCHOOL,ONE BULKELEY PLACE,,NEW LONDON,CT,06320,6242,Unknown,41.35875343,-72.09979254
-71.922661699777564,41.924809031611574,349,PUTNAM ELEMENTARY SCHOOL,33 WICKER ST,,PUTNAM,CT,06260,1444,Unknown,41.92480903,-71.92266170
-73.402082149771331,41.305563211872766,350,JOHN READ MIDDLE SCHOOL,ROUTE 53,,REDDING,CT,06896,1999,Unknown,41.30556321,-73.40208215
-73.197790955887854,41.683617388831465,351,JAMES MORRIS SCHOOL,10 EAST ST,,MORRIS,CT,06763,1801,Unknown,41.68361739,-73.19779096
-73.069631400368792,41.493163044339099,352,WESTERN SCHOOL,100 PINE ST,,NAUGATUCK,CT,06770,3723,Unknown,41.49316304,-73.06963140
-73.222310877045288,41.309373392068437,353,MONROE ELEMENTARY SCHOOL,375 MONROE TURNPIKE,,MONROE,CT,06468,2201,Unknown,41.30937339,-73.22231088
-72.098181162230787,41.321620526965773,354,NATHAN HALE SCHOOL,37 BEECH DR,,NEW LONDON,CT,06320,3099,Unknown,41.32162053,-72.09818116
-72.130989999788596,41.446622862255367,355,PALMER ACADEMY,MAPLE AVE,,MONTVILLE,CT,06353,,Unknown,41.44662286,-72.13099000
-73.023323926857699,41.220452911272901,356,ORCHARD HILLS SCHOOL,185 MARINO DR,,MILFORD,CT,06460,6799,Unknown,41.22045291,-73.02332393
-73.043531900976404,41.50163613290124,357,PROSPECT STREET PRESCHOOL,100 PROSPECT ST,,NAUGATUCK,CT,06770,,Unknown,41.50163613,-73.04353190
-73.049212558612624,41.222603553611179,358,THE ACADEMY,140 GULF ST,,MILFORD,CT,06460,,Unknown,41.22260355,-73.04921256
-72.538655034102476,41.75665017206785,359,KEENEY SCHOOL,179 KEENEY ST,,MANCHESTER,CT,06040,7017,Unknown,41.75665017,-72.53865503
-73.142608038929836,41.425398778330987,360,QUAKER FARMS SCHOOL,30 GREAT OAK RD,,OXFORD,CT,06478,,Unknown,41.42539878,-73.14260804
-72.773203248231255,41.531477339907383,361,FRANCIS T. MALONEY HIGH SCHOOL,121 GRAVEL ST,,MERIDEN,CT,06450,4611,Unknown,41.53147734,-72.77320325
-72.672711848972597,41.76799569704383,362,CAPITAL PREPARATORY MAGNET SCHOOL,950 MAIN ST,,HARTFORD,CT,06103,,Unknown,41.76799570,-72.67271185
-72.707992507348308,41.800261892672268,363,JOURNALISM AND MEDIA HIGH SCHOOL,415 GRANBY ST,,HARTFORD,CT,06112,,Unknown,41.80026189,-72.70799251
-72.632530633681768,41.541626921245495,364,BIELEFIELD SCHOOL,70 MAYNARD ST,,MIDDLETOWN,CT,06457,4519,Unknown,41.54162692,-72.63253063
-72.665518315817565,41.754784710146282,365,KINSELLA MAGNET SCHOOL,65 VAN BLOCK AVE,,HARTFORD,CT,06106,2826,Unknown,41.75478471,-72.66551832
-71.975336073001301,41.427761882804703,366,GALLUP HILL SCHOOL,169 GALLUP HILL RD,,LEDYARD,CT,06339,1830,Unknown,41.42776188,-71.97533607
-72.681943271964371,41.774860119698815,367,QUIRK MIDDLE SCHOOL,85 EDWARDS ST,,HARTFORD,CT,06120,2812,Unknown,41.77486012,-72.68194327
-72.82447493357131,41.537371366195657,368,LINCOLN MIDDLE SCHOOL,164 CENTENNIAL AVE,,MERIDEN,CT,06450,3707,Unknown,41.53737137,-72.82447493
-72.921331320783793,41.367475713433464,369,HAMDEN HIGH SCHOOL,2040 DIXWELL AVE,,HAMDEN,CT,06514,2404,Unknown,41.36747571,-72.92133132
-72.708340666388608,41.800160214422419,370,WEAVER HIGH SCHOOL,415 GRANBY ST,,HARTFORD,CT,06112,1398,Unknown,41.80016021,-72.70834067
-73.458431205935369,41.074120387346056,371,TOKENEKE ELEMENTARY SCHOOL,7 OLD FARM RD,,DARIEN,CT,06820,6113,Unknown,41.07412039,-73.45843121
-72.923818629725929,41.700618740262712,372,EDGEWOOD SCHOOL,345 MIX ST,,BRISTOL,CT,06010,2785,Unknown,41.70061874,-72.92381863
-72.83093999968122,41.528739889934002,373,H. C. WILCOX TECHNICAL HIGH SCHOOL,298 OREGON RD,,MERIDEN,CT,06450,,Unknown,41.52873989,-72.83094000
-73.221709799867313,41.164906209553976,374,MAKE THE GRADE,86 WHITTIER ST,,BRIDGEPORT,CT,06605,,Unknown,41.16490621,-73.22170980
-72.706629719685793,41.741130564324123,375,A. I. PRINCE TECHNICAL HIGH SCHOOL,500 BROOKFIELD ST,,HARTFORD,CT,06106,3709,Unknown,41.74113056,-72.70662972
-73.163977644852366,41.199063051718497,376,BULLARD-HAVENS TECHNICAL HIGH SCHOOL,500 PALISADE AVE,,BRIDGEPORT,CT,06610,3458,Unknown,41.19906305,-73.16397765
-72.80577356939466,41.686077564328173,377,E. C. GOODWIN TECHNICAL HIGH SCHOOL,735 SLATER RD,,NEW BRITAIN,CT,06053,2200,Unknown,41.68607756,-72.80577357
-72.921732198981772,41.379109630305265,378,SHEPHERD GLEN SCHOOL,1 SKIFF ST EXTENSION,,HAMDEN,CT,06514,1845,Unknown,41.37910963,-72.92173220
-72.017051894129565,41.340983498089997,379,ELLA T. GRASSO SOUTHEASTERN TECHNICAL HIGH SCHOOL,189 FORT HILL RD,,GROTON,CT,06340,4803,Unknown,41.34098350,-72.01705189
-72.942573518852782,41.342828081350945,380,ELI WHITNEY TECHNICAL HIGH SCHOOL,71 JONES RD,,HAMDEN,CT,06514,4602,Unknown,41.34282808,-72.94257352
-73.064865177885622,41.335058360654898,381,EMMETT O'BRIEN TECHNICAL HIGH SCHOOL,141 PRINDLE AVE,,ANSONIA,CT,06401,2561,Unknown,41.33505836,-73.06486518
-72.712918236287521,41.823551437848607,382,CARMEN ARACE MIDDLE SCHOOL,390 PARK AVE,,BLOOMFIELD,CT,06002,3100,Unknown,41.82355144,-72.71291824
-71.893701222233574,41.819080991594547,383,H. H. ELLIS TECHNICAL HIGH SCHOOL,613 UPPER MAPLE ST,,DANIELSON,CT,06239,,Unknown,41.81908099,-71.89370122
-73.454482409635432,41.413568945050827,384,HENRY ABBOTT TECHNICAL HIGH SCHOOL,21 HAYESTOWN AVE,,DANBURY,CT,06810,,Unknown,41.41356895,-73.45448241
-72.561264808723877,41.782072761648692,385,HOWELL CHENEY TECHNICAL HIGH SCHOOL,791 WEST MIDDLE TURNPIKE,,MANCHESTER,CT,06040,,Unknown,41.78207276,-72.56126481
-72.940268035741212,41.317082650444036,386,NEW HAVEN CORRECTIONAL CENTER,245 WHALLEY AVE,,NEW HAVEN,CT,06530,,Unknown,41.31708265,-72.94026804
-72.102990304858622,41.509263097014355,387,NORWICH TECHNICAL HIGH SCHOOL,590 NEW LONDON TURNPIKE,,NORWICH,CT,06360,7044,Unknown,41.50926310,-72.10299031
-73.111920132807825,41.810869700176568,388,OLIVER WOLCOTT TECHNICAL HIGH SCHOOL,75 OLIVER ST,,TORRINGTON,CT,06790,3859,Unknown,41.81086970,-73.11192013
-73.046339999891018,41.249639999986073,389,PLATT TECHNICAL HIGH SCHOOL,600 ORANGE AVE,,MILFORD,CT,06460,2157,Unknown,41.24964000,-73.04634000
-73.44194379457042,41.382419390842244,390,ROGERS PARK MIDDLE SCHOOL,21 MEMORIAL DR,,DANBURY,CT,06810,8005,Unknown,41.38241939,-73.44194380
-72.674723662966642,41.528585025778398,391,VINAL TECHNICAL HIGH SCHOOL,60 DANIELS ST,,MIDDLETOWN,CT,06457,4941,Unknown,41.52858503,-72.67472366
-73.066540158901148,41.574971396812543,392,W. F. KAYNOR TECHNICAL HIGH SCHOOL,43 TOMPKINS ST,,WATERBURY,CT,06708,1416,Unknown,41.57497140,-73.06654016
-72.220533081236681,41.719670580133197,393,WINDHAM TECHNICAL HIGH SCHOOL,210 BIRCH ST,,WILLIMANTIC,CT,06226,2108,Unknown,41.71967058,-72.22053308
-73.059287909909074,41.332465611598764,394,PRENDERGAST SCHOOL,59 FINNEY ST,,ANSONIA,CT,06401,,Unknown,41.33246561,-73.05928791
-73.201005747117506,41.190543070706212,395,BRIDGEPORT CORRECTIONAL CENTER,1106 NORTH AVE,,BRIDGEPORT,CT,06604,2710,Unknown,41.19054307,-73.20100575
-71.954314089223772,41.78442116490487,396,BROOKLYN CORRECTIONAL INSTITUTION,ROUTE 6 BOX 297,,BROOKLYN,CT,06234,9801,Unknown,41.78442116,-71.95431409
-72.901079093725173,41.52144941435904,397,CHESHIRE CORRECTIONAL INSTITUTION,900 HIGHLAND AVE,,CHESHIRE,CT,06410,1668,Unknown,41.52144941,-72.90107909
-72.801293414059785,41.287710508233431,398,BRANFORD HIGH SCHOOL,185 EAST MAIN ST,,BRANFORD,CT,06405,3767,Unknown,41.28771051,-72.80129341
-72.512996187224246,42.015310257062765,399,ENFIELD CORRECTIONAL INSTITUTION,SHAKER RD BOX 1500,,ENFIELD,CT,06083,1500,Unknown,42.01531026,-72.51299619
-72.237826229396944,41.333542967933681,400,GATES CORRECTIONAL INSTITUTION,131 NORTH BRIDEBROOK,,NIANTIC,CT,06357,1026,Unknown,41.33354297,-72.23782623
-72.661442163824745,41.79358556142455,401,HARTFORD CORRECTIONAL CENTER,177 WESTON ST,,HARTFORD,CT,06120,1514,Unknown,41.79358556,-72.66144216
-72.920448534572188,41.311283919017683,402,EDUCATIONAL CENTER FOR THE ARTS,55 AUDUBON ST,,NEW HAVEN,CT,06510,,Unknown,41.31128392,-72.92044854
-72.506555009805822,42.023656030401526,403,OSBORN CORRECTIONAL INSTITUTION,100 BILTON RD BOX 100,,SOMERS,CT,06071,,Unknown,42.02365603,-72.50655501
-72.512996187224246,42.015310257062765,404,ROBINSON CORRECTIONAL INSTITUTION,285 SHAKER RD BOX 1400,,ENFIELD,CT,06083,1400,Unknown,42.01531026,-72.51299619
-72.900613407682556,41.523830632078045,405,WEBSTER CORRECTIONAL INSTITUTION,111 JARVIS ST,,CHESHIRE,CT,06410,1504,Unknown,41.52383063,-72.90061341
-72.811996361742672,41.279234177615251,406,JOHN B. SLINEY SCHOOL,23 EADES ST,,BRANFORD,CT,06405,3628,Unknown,41.27923418,-72.81199636
-72.510454233675887,42.019403972815155,407,WILLARD/CYBULSKI CORRECTIONAL INSTITUTION,391 SHAKER RD,,ENFIELD,CT,06082,2329,Unknown,42.01940397,-72.51045423
-72.295412108781761,41.811596012446046,408,BERGIN CORRECTIONAL INSTITUTION,251 MIDDLE TURNPIKE,,STORRS,CT,06268,2910,Unknown,41.81159601,-72.29541211
-73.271988332395608,41.399863041446281,409,GARNER CORRECTIONAL INSTITUTION,50 NUNNAWAUK RD,,NEWTOWN,CT,06470,2319,Unknown,41.39986304,-73.27198833
-72.244072138818126,41.802775235189017,410,E. O. SMITH HIGH SCHOOL,1235 STORRS RD,,STORRS,CT,06268,2287,Unknown,41.80277523,-72.24407214
-72.634030244200346,41.950747254682085,411,MACDOUGALL/WALKER CORRECTIONAL INSTITUTION,1153 EAST ST SOUTH,,SUFFIELD,CT,06078,2447,Unknown,41.95074726,-72.63403024
-72.110259999799098,41.452739999551397,412,CORRIGAN/RADGOWSKI CORRECTIONAL INSTITUTION,986 NORWICHNEW LONDON TURNP,,UNCASVILLE,CT,06382,,Unknown,41.45274000,-72.11026000
-72.613189005268339,41.930786997921643,413,CONNECTICUT CHILDREN'S PLACE,36 GARDNER ST,,EAST WINDSOR,CT,06088,,Unknown,41.93078700,-72.61318900
-72.763463550002768,41.615792478839865,414,CATHERINE M. MCGEE MIDDLE SCHOOL,899 NORTON RD,,BERLIN,CT,06037,3017,Unknown,41.61579248,-72.76346355
-72.614975728846787,41.55828921567479,415,RIVERVIEW HOSPITAL,915 RIVER RD BOX 2797,,MIDDLETOWN,CT,06457,,Unknown,41.55828922,-72.61497573
-72.623989048255908,41.555250232911987,416,CONNECTICUT JUVENILE TRAINING SCHOOL,1225 SILVER ST,,MIDDLETOWN,CT,06457,,Unknown,41.55525023,-72.62398905
-72.550678182951742,41.781746713340226,417,ODYSSEY COMMUNITY SCHOOL,579 WEST MIDDLE TURNPIKE,,MANCHESTER,CT,06040,,Unknown,41.78174671,-72.55067818
-71.983664178259176,41.703214775441609,418,CANTERBURY ELEMENTARY SCHOOL,67 KITT RD,,CANTERBURY,CT,06331,1122,Unknown,41.70321477,-71.98366418
-72.098198745775449,41.355836822411504,419,INTERDISTRICT SCHOOL FOR ARTS AND COMMUNICATION,190 GOVERNOR WINTHROP BOULEV,,NEW LONDON,CT,06320,,Unknown,41.35583682,-72.09819875
-72.959533140841756,41.337912560616246,420,COMMON GROUND HIGH SCHOOL,358 SPRINGSIDE AVE,,NEW HAVEN,CT,06515,,Unknown,41.33791256,-72.95953314
-73.183146072832983,41.183779283986837,421,THE BRIDGE ACADEMY,410 KOSSUTH ST  BOX 2267,,BRIDGEPORT,CT,06608,,Unknown,41.18377928,-73.18314607
-73.419992796730128,41.095639129642166,422,SIDE BY SIDE COMMUNITY SCHOOL,10 CHESTNUT ST,,NORWALK,CT,06854,,Unknown,41.09563913,-73.41999280
-73.5215400000709,41.053215999818576,423,TRAILBLAZERS ACADEMY,PARK SQUARE ST,,STAMFORD,CT,06901,0360,Unknown,41.05321600,-73.52154000
-72.903340877879145,41.313780894772549,424,AMISTAD ACADEMY,407 JAMES ST,,NEW HAVEN,CT,06513,,Unknown,41.31378090,-72.90334088
-73.168052098025839,41.189484050648446,425,GREATER BRIDGEPORT COMMUNITY MENTAL HEALTH CENTER,1635 CENTRAL AVE,,BRIDGEPORT,CT,06610,,Unknown,41.18948405,-73.16805210
-72.936189955601947,41.305263693564655,426,CONNECTICUT MENTAL HEALTH CENTER,34 PARK ST,,NEW HAVEN,CT,06790,,Unknown,41.30526369,-72.93618996
-72.091207436873674,41.505139880800925,427,SOUTHEAST MENTAL HEALTH AUTHORITY,401 WEST THAMES ST,,NORWICH,CT,06360,,Unknown,41.50513988,-72.09120744
-72.625723421398732,41.552575331686285,428,CONNECTICUT VALLEY HOSPITAL - WHITING FORENSIC DIV,70 OBRIEN DR,,MIDDLETOWN,CT,06457,,Unknown,41.55257533,-72.62572342
-72.709792709965541,41.706711109330286,429,CEDARCREST REGIONAL HOSP - BLUE HILLS HOSP. SUBSTA,525 RUSSELL RD,,NEWINGTON,CT,06111,,Unknown,41.70671111,-72.70979271
-73.536454061006054,41.059308335611263,430,STAMFORD ACADEMY,229 NORTH ST,,STAMFORD,CT,06092,,Unknown,41.05930834,-73.53645406
-72.412545733199011,41.288827308833277,431,RIVER VALLEY SERVICES,2 CENTER RD WEST,,OLD SAYBROOK,CT,06475,,Unknown,41.28882731,-72.41254573
-73.179763100286834,41.186708669969221,432,PARK CITY PREP CHARTER SCHOOL,510 BARNUM AVE,,BRIDGEPORT,CT,06608,,Unknown,41.18670867,-73.17976310
-72.791526818008208,41.395750019947513,433,COLLABORATIVE ALTERNATIVE MAGNET SCHOOL,26 OLD POST RD,,NORTHFORD,CT,06472,1034,Unknown,41.39575002,-72.79152682
-73.000278660931428,41.424488525924801,434,BETHANY COMMUNITY SCHOOL,44 PECK RD,,BETHANY,CT,06524,3322,Unknown,41.42448853,-73.00027866
-72.961542062616047,41.356352541336776,435,WINTERGREEN INTERDISTRICT  MAGNET SCHOOL,670 WINTERGREEN AVE,,HAMDEN,CT,06514,3235,Unknown,41.35635254,-72.96154206
-72.776647122866393,41.555174024361804,436,THOMAS EDISON MAGNET MIDDLE SCHOOL,1355 NORTH BROAD ST,,MERIDEN,CT,06450,2438,Unknown,41.55517402,-72.77664712
-72.908972614194738,41.371680567404326,437,WHITNEY HIGH SCHOOL NORTH,205 SKIFF ST,,HAMDEN,CT,06517,,Unknown,41.37168057,-72.90897261
-72.841383412914126,41.407808039109796,438,VILLAGE SCHOOL,31 TEMPLE ST,,NORTH HAVEN,CT,06473,,Unknown,41.40780804,-72.84138341
-72.791526818008208,41.395750019947513,439,CENTER FOR AUTISM SPECTRUM AND DEVELOPMENT DISORDE,26 OLD POST RD,,NORTHFORD,CT,06472,,Unknown,41.39575002,-72.79152682
-72.169448796624636,41.892174294708013,440,ASHFORD SCHOOL,440 WESTFORD RD,,ASHFORD,CT,06278,1113,Unknown,41.89217429,-72.16944880
-72.855458645599981,41.774736533963903,441,PINE GROVE SCHOOL,151 SCOVILLE RD,,AVON,CT,06001,3023,Unknown,41.77473653,-72.85545865
-72.862159304408351,41.783664877332285,442,AVON HIGH SCHOOL,510 WEST AVON RD,,AVON,CT,06001,2519,Unknown,41.78366488,-72.86215930
-72.865589553415134,41.791949376262778,443,AVON MIDDLE SCHOOL,375 WEST AVON RD,,AVON,CT,06001,2208,Unknown,41.79194938,-72.86558955
-72.990100580977014,41.911452983168715,444,BARKHAMSTED ELEMENTARY SCHOOL,65 RIPLEY HILL RD,,BARKHAMSTED,CT,06063,0557,Unknown,41.91145298,-72.99010058
-72.990100580977014,41.911452983168715,445,SHARED SERVICES INTEGRATED PRESCHOOL,65 RIPLEY HILL RD,,BARKHAMSTED,CT,06063,,Unknown,41.91145298,-72.99010058
-73.186065642715221,41.185250469633502,446,ACHIEVEMENT FIRST BRIDGEPORT ACADEMY,365 EAST WASHINGTON AVE,,BRIDGEPORT,CT,06608,,Unknown,41.18525047,-73.18606564
-73.207581268860451,41.170539924378033,447,CESAR BATALLA SCHOOL,606 HOWARD AVE,,BRIDGEPORT,CT,06605,1741,Unknown,41.17053992,-73.20758127
-72.70476684061714,41.804018624360083,448,ACHIEVEMENT FIRST HARTFORD ACADEMY INC.,395 LYME ST,,HARTFORD,CT,06112,,Unknown,41.80401862,-72.70476684
-72.705894999654447,41.774605000020813,449,CHARTER SCHOOL FOR YOUNG CHILDREN ON ASYLUM HILL I,1265 ASYLUM AVE,,HARTFORD,CT,06105,,Unknown,41.77460500,-72.70589500
-72.915969999815616,41.305544999702022,450,ELM CITY COLLEGE PREPARATORY SCHOOL,234 GREEN ST,,NEW HAVEN,CT,06513,,Unknown,41.30554500,-72.91597000
-73.395905221049077,41.379348903928815,451,FRANK A. BERRY SCHOOL,200 WHITTLESEY DR,,BETHEL,CT,06801,1598,Unknown,41.37934890,-73.39590522
-72.726226384140261,41.827542800859646,452,BLOOMFIELD HIGH SCHOOL,5 HUCKLEBERRY LN,,BLOOMFIELD,CT,06002,3190,Unknown,41.82754280,-72.72622638
-72.733728042115388,41.823442136945118,453,J. P. VINCENT SCHOOL,11 TURKEY HILL RD,,BLOOMFIELD,CT,06002,3099,Unknown,41.82344214,-72.73372804
-72.734498371702443,41.869785192132952,454,THE BIG PICTURE HIGH SCHOOL,44 GRIFFIN RD SOUTH,,BLOOMFIELD,CT,06002,,Unknown,41.86978519,-72.73449837
-73.3861792140994,41.467493350737584,455,CENTER ELEMENTARY SCHOOL,8 OBTUSE HILL,,BROOKFIELD,CT,06804,,Unknown,41.46749335,-73.38617921
-72.746006912289147,41.838223061345275,456,WINTONBURY EARLY CHILDHOOD MAGNET SCHOOL,44 BROWN ST,,BLOOMFIELD,CT,06002,,Unknown,41.83822306,-72.74600691
-72.153618000070594,41.563508987849559,457,FIELDS MEMORIAL SCHOOL,8 BOZRAH ST EXTENSION B,,BOZRAH,CT,06334,1304,Unknown,41.56350899,-72.15361800
-72.781987500422758,41.284475725074685,458,FRANCIS WALSH INTERMEDIATE SCHOOL,185 DAMASCUS RD,,BRANFORD,CT,06405,6107,Unknown,41.28447573,-72.78198750
-72.300037455164386,41.767421158859463,459,COVENTRY EARLY CHILDHOOD CENTER,1171 MAIN ST,,COVENTRY,CT,06238,,Unknown,41.76742116,-72.30003745
-73.206554674758422,41.173044907696408,460,BASSICK HIGH SCHOOL,1181 FAIRFIELD AVE,,BRIDGEPORT,CT,06605,1119,Unknown,41.17304491,-73.20655468
-73.181600594192048,41.199658232041827,461,BEARDSLEY SCHOOL,500 HUNTINGTON RD,,BRIDGEPORT,CT,06610,1709,Unknown,41.19965823,-73.18160059
-73.225947991706391,41.156482248257191,462,BLACK ROCK SCHOOL,545 BREWSTER ST,,BRIDGEPORT,CT,06605,3409,Unknown,41.15648225,-73.22594799
-73.213345501393746,41.205539969094332,463,BLACKHAM SCHOOL,425 THORME ST,,BRIDGEPORT,CT,06606,3418,Unknown,41.20553997,-73.21334550
-73.214947070750668,41.174244634782099,464,BRYANT SCHOOL,230 POPLAR ST,,BRIDGEPORT,CT,06605,1634,Unknown,41.17424464,-73.21494707
-73.206341548024,41.188520470243532,465,CENTRAL HIGH SCHOOL,ONE LINCOLN BLVD,,BRIDGEPORT,CT,06606,5502,Unknown,41.18852047,-73.20634155
-73.197264188791223,41.185348365334846,466,COLUMBUS SCHOOL,275 GEORGE ST,,BRIDGEPORT,CT,06604,3320,Unknown,41.18534837,-73.19726419
-73.195593744855387,41.224708294552215,467,CROSS SCHOOL,1775 RESERVOIR AVE,,BRIDGEPORT,CT,06606,1434,Unknown,41.22470829,-73.19559374
-73.163108777448087,41.195230545853065,468,EDISON SCHOOL,115 BOSTON TERRACE,,BRIDGEPORT,CT,06610,2505,Unknown,41.19523055,-73.16310878
-73.159671500239483,41.191370845388235,469,HALL SCHOOL,290 CLERMONT AVE,,BRIDGEPORT,CT,06610,2902,Unknown,41.19137085,-73.15967150
-73.167099563993645,41.190992434952989,470,HARDING HIGH SCHOOL,1734 CENTRAL AVE,,BRIDGEPORT,CT,06610,2763,Unknown,41.19099243,-73.16709956
-73.169055531887238,41.217262837909686,471,HOOKER SCHOOL,138 ROGER WILLIAMS RD,,BRIDGEPORT,CT,06610,1398,Unknown,41.21726284,-73.16905553
-73.200731453893468,41.220874278725034,472,PARK CITY MAGNET SCHOOL,1526 CHOPSEY HILL RD,,BRIDGEPORT,CT,06606,2422,Unknown,41.22087428,-73.20073145
-73.165040793697642,41.177926276676374,473,DUNBAR SCHOOL,445 UNION AVE,,BRIDGEPORT,CT,06607,1823,Unknown,41.17792628,-73.16504079
-73.209813951852368,41.179088924714165,474,CLASSICAL STUDIES ACADEMY,240 LINWOOD AVE,,BRIDGEPORT,CT,06604,2408,Unknown,41.17908893,-73.20981395
-73.160126433088351,41.178316765006741,475,JETTIE S. TISDALE SCHOOL,345 LOGAN ST,,BRIDGEPORT,CT,06607,1935,Unknown,41.17831676,-73.16012643
-73.198291108447847,41.202587043357426,476,READ SCHOOL,130 EZRA ST,,BRIDGEPORT,CT,06606,5061,Unknown,41.20258704,-73.19829111
-73.194801009558887,41.171568918770618,477,ROOSEVELT SCHOOL,680 PARK AVE,,BRIDGEPORT,CT,06604,4610,Unknown,41.17156892,-73.19480101
-73.177881133107746,41.182166697035484,478,WALTERSVILLE SCHOOL,95 GILMORE ST,,BRIDGEPORT,CT,06608,2618,Unknown,41.18216670,-73.17788113
-73.227416297723948,41.213427043223533,479,SKANE CENTER,2977 NORTH MADISON AVE,,BRIDGEPORT,CT,06606,2060,Unknown,41.21342704,-73.22741630
-73.202147170255671,41.187129838671183,480,GERALDINE JOHNSON SCHOOL,1375 NORTH AVE,,BRIDGEPORT,CT,06604,2675,Unknown,41.18712984,-73.20214717
-73.163968471767532,41.199712051969698,481,MULTICULTURAL MAGNET SCHOOL,700 PALISADE AVE,,BRIDGEPORT,CT,06610,3457,Unknown,41.19971205,-73.16396847
-72.027239987135658,41.34778072340174,482,CLAUDE CHESTER SCHOOL,ONE HARRY DAY RD,,GROTON,CT,06340,4369,Unknown,41.34778072,-72.02723999
-73.163968471767532,41.199712051969698,483,HIGH HORIZONS MAGNET SCHOOL,700 PALISADE AVE,,BRIDGEPORT,CT,06610,3457,Unknown,41.19971205,-73.16396847
-73.185918214154242,41.1862572903417,484,PARK CITY ACADEMY,391 EAST WASHINGTON AVE,,BRIDGEPORT,CT,06608,,Unknown,41.18625729,-73.18591821
-73.24082039244712,41.200832144088224,485,DISCOVERY INTERDISTRICT MAGNET SCHOOL,1571 STRATFIELD RD,,FAIRFIELD,CT,06825,,Unknown,41.20083214,-73.24082039
-72.95981876642287,41.661326056952021,486,BRISTOL CENTRAL HIGH SCHOOL,480 WOLCOTT ST,,BRISTOL,CT,06010,6480,Unknown,41.66132606,-72.95981877
-72.908166809050954,41.678847066339074,487,ELLEN P. HUBBELL SCHOOL,90 WEST WASHINGTON ST,,BRISTOL,CT,06010,5444,Unknown,41.67884707,-72.90816681
-72.896335919067383,41.66845609886991,488,GREENE-HILLS SCHOOL,718 PINE ST,,BRISTOL,CT,06010,6923,Unknown,41.66845610,-72.89633592
-72.90121378518802,41.70456807975313,489,IVY DRIVE SCHOOL,160 IVY DR,,BRISTOL,CT,06010,3303,Unknown,41.70456808,-72.90121378
-72.944339802639718,41.690131423926118,490,JOHN J. JENNINGS SCHOOL,291 BURLINGTON AVE,,BRISTOL,CT,06010,3670,Unknown,41.69013142,-72.94433980
-72.898854334659802,41.696497639254687,491,MOUNTAIN VIEW SCHOOL,71 VERA RD,,BRISTOL,CT,06010,4857,Unknown,41.69649764,-72.89885433
-72.938744546423663,41.668922072695523,492,MEMORIAL BOULEVARD MIDDLE SCHOOL,70 MEMORIAL BLVD,,BRISTOL,CT,06010,6580,Unknown,41.66892207,-72.93874455
-72.922782145779365,41.686513992726645,493,ALTERNATIVE SPECIAL EDUCATION PROGRAM (ASEP),632 KING ST,,BRISTOL,CT,06010,,Unknown,41.68651399,-72.92278215
-72.94510012457107,41.669618427648345,494,COMMUNITY/VOCATIONAL PROGRAM,129 CHURCH ST BOX 45,,BRISTOL,CT,06011,,Unknown,41.66961843,-72.94510012
-72.904496385299922,41.511094227316789,495,DODD MIDDLE SCHOOL,100 PARK PLACE,,CHESHIRE,CT,06410,2145,Unknown,41.51109423,-72.90449639
-72.923499880315205,41.498606690146687,496,DOOLITTLE SCHOOL,735 CORNWALL AVE,,CHESHIRE,CT,06410,2617,Unknown,41.49860669,-72.92349988
-73.390532261954263,41.480146452197062,497,BROOKFIELD HIGH SCHOOL,45 LONG MEADOW HILL RD,,BROOKFIELD,CT,06804,1311,Unknown,41.48014645,-73.39053226
-73.375794736138118,41.440625743982935,498,WHISCONIER MIDDLE SCHOOL,17 WEST WHISCONIER RD,,BROOKFIELD,CT,06804,,Unknown,41.44062574,-73.37579474
-73.417967784285793,41.448252357360445,499,HUCKLEBERRY HILL ELEMENTARY SCHOOL,100 CANDLEWOOD LAKE RD,,BROOKFIELD,CT,06804,2228,Unknown,41.44825236,-73.41796778
-72.916456655350316,41.825923092176993,500,CANTON MIDDLE SCHOOL,76 SIMONDS AVE,,CANTON,CT,06019,,Unknown,41.82592309,-72.91645666
-71.976908702174853,41.698241850081388,501,DR. HELEN BALDWIN MIDDLE SCHOOL,45 WESTMINSTER RD,,CANTERBURY,CT,06331,1538,Unknown,41.69824185,-71.97690870
-72.590252790234047,41.73559211288574,502,EAST HARTFORD/GLASTONBURY MAGNET SCHOOL,305 MAY RD,,EAST HARTFORD,CT,06118,3434,Unknown,41.73559211,-72.59025279
-72.726802300086035,41.871138356150254,503,METROPOLITAN LEARNING CENTER,1551 BLUE HILLS AVE,,BLOOMFIELD,CT,06002,,Unknown,41.87113836,-72.72680230
-73.441191677154166,41.40663803102035,504,BROADVIEW MIDDLE SCHOOL,72 HOSPITAL AVE,,DANBURY,CT,06810,6021,Unknown,41.40663803,-73.44119168
-72.61747226932971,41.794333820749273,505,JOHN J. ALLISON POLARIS CENTER,474 SCHOOL ST,,EAST HARTFORD,CT,06108,1912,Unknown,41.79433382,-72.61747227
-72.717235661096822,41.796504339004116,506,UNIVERSITY OF HARTFORD MULTIPLE INTELLIGENCES MAGN,196 BLOOMFIELD AVE,,WEST HARTFORD,CT,06117,,Unknown,41.79650434,-72.71723566
-72.653813193324197,41.756927517590896,507,TWO RIVERS MIDDLE MAGNET SCHOOL,337 EAST RIVER DR,,EAST HARTFORD,CT,06108,,Unknown,41.75692752,-72.65381319
-72.302335623190402,41.576469801340295,508,BACON ACADEMY,611 NORWICH AVE,,COLCHESTER,CT,06415,2142,Unknown,41.57646980,-72.30233562
-72.863825288606165,41.790252566003176,509,FARMINGTON VALLEY REGIONAL DIAGNOSTIC CENTER,395 WEST AVON RD,,AVON,CT,06001,,Unknown,41.79025257,-72.86382529
-72.699609252964592,41.70279206889893,510,SOUNDBRIDGE,123 PROGRESS DR,,WETHERSFIELD,CT,06109,,Unknown,41.70279207,-72.69960925
-72.656699431633399,41.897316738676579,511,RIVER STREET SCHOOL,601 RIVER ST,,WINDSOR,CT,06095,,Unknown,41.89731674,-72.65669943
-72.665251667730217,41.756756713851303,512,INTEGRATED PROGRAM MODELS,34 SEQUASSEN ST,,HARTFORD,CT,06095,,Unknown,41.75675671,-72.66525167
-72.835983668411529,41.817918711379491,513,REGGIO MAGNET SCHOOL OF THE ARTS,150 FISHER DR,,AVON,CT,06001,,Unknown,41.81791871,-72.83598367
-72.684099205014263,41.751170129797686,514,GREATER HARTFORD ACADEMY OF  THE ARTS - FULL TIME,15 VERNON ST,,HARTFORD,CT,06106,,Unknown,41.75117013,-72.68409920
-72.665251667730217,41.756756713851303,515,RIVER STREET EARLY LEARNING CENTER (SITE 2),34 SEQUASSEN ST,,HARTFORD,CT,06106,,Unknown,41.75675671,-72.66525167
-72.615479691834253,41.764413917668207,516,INTERNATIONAL MAGNET SCHOOL FOR GLOBAL CITIZENSHIP,656 SILVER LN,,EAST HARTFORD,CT,06108,,Unknown,41.76441392,-72.61547969
-73.491293804065776,41.084652014179142,517,DARIEN HIGH SCHOOL,80 HIGH SCHOOL LN,,DARIEN,CT,06820,3399,Unknown,41.08465201,-73.49129380
-72.684527508038002,41.750950029720173,518,GREATER HARTFORD ACADEMY OF MATH AND SCIENCE,15 VERNON ST,,HARTFORD,CT,06106,,Unknown,41.75095003,-72.68452751
-72.562940662081871,42.023728725300487,519,CREC - PUBLIC SAFETY ACADEMY INTERDISTRICT MAGNET,227 BRAINARD RD,,ENFIELD,CT,06082,,Unknown,42.02372872,-72.56294066
-72.617093934437491,41.794371891749449,520,LINCOLN ACADEMY REGIONAL INTERDISTRICT COLLABORATI,474 SCHOOL ST,,EAST HARTFORD,CT,06108,,Unknown,41.79437189,-72.61709393
-72.311308636784133,41.780955329724748,521,CAPT. NATHAN HALE SCHOOL,1776 MAIN ST,,COVENTRY,CT,06238,1656,Unknown,41.78095533,-72.31130864
-72.691687975819377,41.769060827095529,522,CREC EARLY LEARNING CENTER AT ASYLUM HILL,814 ASYLUM AVE,,HARTFORD,CT,06105,,Unknown,41.76906083,-72.69168798
-72.665896461852185,41.84974032625513,523,CREC MEDICAL PROFESSIONS AND TEACHER PREPARATION A,10 UNIVAC LN,,WINDSOR,CT,06095,,Unknown,41.84974033,-72.66589646
-72.147582043676323,41.789522065590916,524,CHAPLIN ELEMENTARY SCHOOL,240 PALMER RD,,CHAPLIN,CT,06235,0322,Unknown,41.78952207,-72.14758204
-72.896486522235193,41.520137521129755,525,CHAPMAN SCHOOL,38 COUNTRY CLUB RD,,CHESHIRE,CT,06410,1630,Unknown,41.52013752,-72.89648652
-72.918552380587869,41.47944518334856,526,NORTON SCHOOL,414 NORTH BROOKSVALE RD,,CHESHIRE,CT,06410,3340,Unknown,41.47944518,-72.91855238
-72.938999675994239,41.537905314378804,527,DARCEY SCHOOL,1686 WATERBURY RD,,CHESHIRE,CT,06410,1331,Unknown,41.53790531,-72.93899968
-72.457751091139926,41.403110541018691,528,CHESTER ELEMENTARY SCHOOL,23 RIDGE RD,,CHESTER,CT,06412,1121,Unknown,41.40311054,-72.45775109
-72.52120733475067,41.278338503219402,529,ABRAHAM PIERSON SCHOOL,75 EAST MAIN ST,,CLINTON,CT,06413,2036,Unknown,41.27833850,-72.52120733
-72.525860236360757,41.303207928802919,530,LEWIN G. JOEL JR. SCHOOL,137A GLENWOOD RD,,CLINTON,CT,06413,1425,Unknown,41.30320793,-72.52586024
-72.529411652825502,41.29142377838474,531,THE MORGAN SCHOOL,27 KILLINGWORTH TURNPIKE,,CLINTON,CT,06413,1399,Unknown,41.29142378,-72.52941165
-72.320119801187843,41.575462667668035,532,WILLIAM J. JOHNSTON MIDDLE SCHOOL,360 NORWICH AVE,,COLCHESTER,CT,06415,1272,Unknown,41.57546267,-72.32011980
-72.32126031870871,41.572310970175181,533,JACK JACKTER INTERMEDIATE SCHOOL,315 HALLS HILL RD,,COLCHESTER,CT,06415,1433,Unknown,41.57231097,-72.32126032
-72.015559425127321,41.604891715380404,534,LISBON CENTRAL SCHOOL,15 NEWENT RD,,LISBON,CT,06351,2926,Unknown,41.60489172,-72.01555943
-72.318387836429451,41.574043282071841,535,COLCHESTER ELEMENTARY SCHOOL,380 NORWICH AVE,,COLCHESTER,CT,06415,,Unknown,41.57404328,-72.31838784
-73.092251822063872,41.987889692255521,536,COLEBROOK CONSOLIDATED SCHOOL,452 SMITH HILL RD,,COLEBROOK,CT,06021,0009,Unknown,41.98788969,-73.09225182
-72.300767862946486,41.70444852477965,537,HORACE W. PORTER SCHOOL,3 SCHOOLHOUSE RD BOX 166,,COLUMBIA,CT,06237,0166,Unknown,41.70444852,-72.30076786
-73.203298638821082,41.229691580102383,538,C. E. S. SPECIAL EDUCATION,25 OAKVIEW DR,,TRUMBULL,CT,06611,,Unknown,41.22969158,-73.20329864
-73.161637248260377,41.204221676289364,539,SIX-SIX MAGNET SCHOOL,601 PEARL HARBOR ST,,BRIDGEPORT,CT,06610,5249,Unknown,41.20422168,-73.16163725
-73.203298638821082,41.229691580102383,540,DEVELOPMENTAL LEARNING CENTER (DLC),25 OAKVIEW DR,,TRUMBULL,CT,06611,,Unknown,41.22969158,-73.20329864
-73.203298638821082,41.229691580102383,541,PRESCHOOL-PRIMARY LEARNING CENTER (PLC),25 OAKVIEW DR,,TRUMBULL,CT,06611,,Unknown,41.22969158,-73.20329864
-72.593584416887268,41.976085021106883,542,ENFIELD STREET SCHOOL,1318 ENFIELD ST,,ENFIELD,CT,06082,4912,Unknown,41.97608502,-72.59358442
-73.3413127746648,41.876669429550589,543,CORNWALL CONSOLIDATED SCHOOL,5 CREAM HILL RD,,WEST CORNWALL,CT,06796,9799,Unknown,41.87666943,-73.34131278
-72.657372881753076,41.62803381400937,544,CROMWELL MIDDLE SCHOOL,9 MANN MEMORIAL DR,,CROMWELL,CT,06416,1356,Unknown,41.62803381,-72.65737288
-73.470940936574948,41.41606415093986,545,DANBURY HIGH SCHOOL,43 CLAPBOARD RIDGE RD,,DANBURY,CT,06811,4529,Unknown,41.41606415,-73.47094094
-72.215400159289857,41.367443132794392,546,FLANDERS SCHOOL,167 BOSTON POST RD,,EAST LYME,CT,06333,1642,Unknown,41.36744313,-72.21540016
-73.500220069100862,41.425252617814124,547,KING STREET PRIMARY SCHOOL,151 SOUTH KING ST,,DANBURY,CT,06811,3540,Unknown,41.42525262,-73.50022007
-73.485005384590806,41.389618706638032,548,MILL RIDGE PRIMARY SCHOOL,49A HIGH RIDGE RD,,DANBURY,CT,06811,5297,Unknown,41.38961871,-73.48500538
-73.465428072647398,41.39480235934144,549,MORRIS STREET SCHOOL,28 MORRIS ST,,DANBURY,CT,06810,5473,Unknown,41.39480236,-73.46542807
-73.462382181292583,41.385775084252771,550,PARK AVENUE SCHOOL,82 PARK AVE,,DANBURY,CT,06810,7630,Unknown,41.38577508,-73.46238218
-73.474999999650208,41.436000000099966,551,PEMBROKE SCHOOL,34 PEMBROKE RD,,DANBURY,CT,06811,2956,Unknown,41.43600000,-73.47500000
-73.441465226638854,41.401465234932687,552,ALTERNATIVE CENTER FOR EXCELLENCE,26 LOCUST AVE,,DANBURY,CT,06810,6147,Unknown,41.40146524,-73.44146523
-73.500624577861913,41.424169962673716,553,KING STREET INTERMEDIATE SCHOOL,151 SOUTH KING ST,,DANBURY,CT,06811,3540,Unknown,41.42416996,-73.50062458
-73.484386315575989,41.387086545807506,554,MILL RIDGE EDUCATIONAL CENTER,ONE SCHOOL RIDGE RD,,DANBURY,CT,06811,5254,Unknown,41.38708655,-73.48438632
-73.088057616965386,41.327542093193074,555,IRVING SCHOOL,9 GARDEN PLACE,,DERBY,CT,06418,1416,Unknown,41.32754209,-73.08805762
-73.09787903928617,41.333678312304301,556,DERBY MIDDLE SCHOOL,10 NUTMEG AVE,,DERBY,CT,06418,,Unknown,41.33367831,-73.09787904
-73.49287390390748,41.403687115268212,557,WESTERN CT ACADEMY OF INTERNATIONAL STUDIES,201 UNIVERSITY BLVD,,DANBURY,CT,06811,,Unknown,41.40368711,-73.49287390
-73.497241244687643,41.073468112663306,558,MIDDLESEX MIDDLE SCHOOL,204 HOLLOW TREE RIDGE RD,,DARIEN,CT,06820,4023,Unknown,41.07346811,-73.49724124
-72.434628901702411,41.386047464618855,559,DEEP RIVER ELEMENTARY SCHOOL,12 RIVER ST,,DEEP RIVER,CT,06417,1921,Unknown,41.38604746,-72.43462890
-72.059045874667333,41.792479605749236,560,HAMPTON ELEMENTARY SCHOOL,380 MAIN ST,,HAMPTON,CT,06247,1416,Unknown,41.79247961,-72.05904587
-72.731217805857,41.943576233356509,561,ALLGROVE SCHOOL,33 TURKEY HILLS RD,,EAST GRANBY,CT,06026,9570,Unknown,41.94357623,-72.73121781
-72.727560860245489,41.933366587198293,562,EAST GRANBY HIGH SCHOOL,95 SOUTH MAIN ST,,EAST GRANBY,CT,06026,9550,Unknown,41.93336659,-72.72756086
-72.728338265698369,41.932649760977768,563,EAST GRANBY MIDDLE SCHOOL,95 SOUTH MAIN ST,,EAST GRANBY,CT,06026,9550,Unknown,41.93264976,-72.72833827
-72.501666249297955,41.576761428097484,564,CENTER SCHOOL,7 SUMMIT ST,,EAST HAMPTON,CT,06424,1298,Unknown,41.57676143,-72.50166625
-72.769001246909966,41.93223600808534,565,R. DUDLEY SEYMOUR SCHOOL,185 HARTFORD AVE,,EAST GRANBY,CT,06026,9520,Unknown,41.93223601,-72.76900125
-72.439160000033951,41.50127000001055,566,EAST HADDAM ELEMENTARY SCHOOL,JOE WILLIAMS RD BOX 425,,MOODUS,CT,06469,0425,Unknown,41.50127000,-72.43916000
-72.443764131409523,41.493125690997886,567,NATHAN HALE-RAY HIGH SCHOOL,15 SCHOOL DR BOX 404,,MOODUS,CT,06469,0404,Unknown,41.49312569,-72.44376413
-72.866089288689693,41.254863489058835,568,D. C. MOORE SCHOOL,82 ELLIOT ST,,EAST HAVEN,CT,06512,4232,Unknown,41.25486349,-72.86608929
-72.445037417642652,41.52018831483889,569,NATHAN HALE-RAY MIDDLE SCHOOL,73 CLARK GATES RD BOX 363,,MOODUS,CT,06469,0363,Unknown,41.52018831,-72.44503742
-72.513395273972662,41.582472284068729,570,EAST HAMPTON HIGH SCHOOL,15 NORTH MAPLE ST,,EAST HAMPTON,CT,06424,1064,Unknown,41.58247228,-72.51339527
-72.522770179300323,41.568198720294731,571,EAST HAMPTON MIDDLE SCHOOL,19 CHILDS RD,,EAST HAMPTON,CT,06424,1709,Unknown,41.56819872,-72.52277018
-73.270783091566386,41.24509580212964,572,HELEN KELLER MIDDLE SCHOOL,360 SPORT HILL RD,,EASTON,CT,06612,1714,Unknown,41.24509580,-73.27078309
-72.502633266911687,41.576460851287322,573,THE LEARNING CENTER AT EAST HAMPTON,55 MAIN ST,,EAST HAMPTON,CT,06424,,Unknown,41.57646085,-72.50263327
-72.630171012282347,41.785282717223652,574,ANNA E. NORRIS SCHOOL,40 REMINGTON RD,,EAST HARTFORD,CT,06108,4010,Unknown,41.78528272,-72.63017101
-72.594952134633274,41.775629673170954,575,DR. FRANKLIN H. MAYBERRY SCHOOL,101 GREAT HILL RD,,EAST HARTFORD,CT,06108,2833,Unknown,41.77562967,-72.59495213
-72.88451446027409,41.2715172354321,576,PATHWAYS,290 DODGE AVE,,EAST HAVEN,CT,06512,,Unknown,41.27151723,-72.88451446
-72.599215940063516,41.792995623249453,577,DR. JOHN A. LANGFORD SCHOOL,61 ALPS DR,,EAST HARTFORD,CT,06108,1402,Unknown,41.79299562,-72.59921594
-72.591937231218196,41.735405392944585,578,DR. THOMAS S. O'CONNELL SCHOOL,301 MAY RD,,EAST HARTFORD,CT,06118,3434,Unknown,41.73540539,-72.59193723
-72.604362691784786,41.7792151910283,579,EAST HARTFORD MIDDLE SCHOOL,777 BURNSIDE AVE,,EAST HARTFORD,CT,06108,2705,Unknown,41.77921519,-72.60436269
-72.419086231744188,41.350311829327495,580,ESSEX ELEMENTARY SCHOOL,108 MAIN ST,,CENTERBROOK,CT,06409,1099,Unknown,41.35031183,-72.41908623
-72.605046083010279,41.754314001390128,581,EAST HARTFORD HIGH SCHOOL,869 FORBES ST,,EAST HARTFORD,CT,06118,1921,Unknown,41.75431400,-72.60504608
-72.59146436498844,41.743789278652343,582,GOVERNOR WILLIAM PITKIN SCHOOL,330 HILLS ST,,EAST HARTFORD,CT,06118,2910,Unknown,41.74378928,-72.59146436
-72.606131705913469,41.739304588935681,583,JOSEPH O. GOODWIN SCHOOL,1235 FORBES ST,,EAST HARTFORD,CT,06118,2803,Unknown,41.73930459,-72.60613171
-72.610835823914101,41.722381900304526,584,NAUBUC SCHOOL,84 GRISWOLD ST,,GLASTONBURY,CT,06033,1006,Unknown,41.72238190,-72.61083582
-72.594139983873106,41.785651918601218,585,WOODLAND SCHOOL,110 LONG HILL DR,,EAST HARTFORD,CT,06108,1716,Unknown,41.78565192,-72.59413998
-72.61011592740806,41.794122448592191,586,ROBERT J. O'BRIEN SCHOOL,52 FARM DR,,EAST HARTFORD,CT,06108,1211,Unknown,41.79412245,-72.61011593
-72.635031106900044,41.760541988222258,587,SILVER LANE SCHOOL,15 MERCER AVE,,EAST HARTFORD,CT,06118,1517,Unknown,41.76054199,-72.63503111
-72.59955700525154,41.76487671059175,588,SUNSET RIDGE SCHOOL,450 FORBES ST,,EAST HARTFORD,CT,06118,,Unknown,41.76487671,-72.59955700
-72.637515947203156,41.744746891156183,589,WILLOWBROOK EARLY CHILDHOOD,95 WILLOWBROOK RD,,EAST HARTFORD,CT,06118,1842,Unknown,41.74474689,-72.63751595
-72.596264404678493,41.75494442974167,590,STEVENS ALTERNATE HIGH SCHOOL,40 BUTTERNUT DR,,EAST HARTFORD,CT,06118,,Unknown,41.75494443,-72.59626440
-72.606315878075293,41.753951141132291,591,CONNECTICUT IB ACADEMY,857 FORBES ST,,EAST HARTFORD,CT,06118,1921,Unknown,41.75395114,-72.60631588
-73.261621334556878,41.1481902993429,592,ROGER LUDLOWE MIDDLE SCHOOL,689 UNQUOWA RD,,FAIRFIELD,CT,06824,,Unknown,41.14819030,-73.26162134
-72.854035863264414,41.334450204013763,593,DOMINICK H. FERRARA SCHOOL,22 MAYNARD RD,,EAST HAVEN,CT,06512,1299,Unknown,41.33445020,-72.85403586
-72.866817572273078,41.286572805590538,594,JOSEPH MELILLO MIDDLE SCHOOL,67 HUDSON ST,,EAST HAVEN,CT,06512,1524,Unknown,41.28657281,-72.86681757
-72.873578609764991,41.273303845695978,595,GROVE J. TUTTLE SCHOOL,108 PROSPECT ST,,EAST HAVEN,CT,06512,3307,Unknown,41.27330385,-72.87357861
-72.6988148728081,41.745647340052756,596,MOYLAN SCHOOL,101 CATHERINE ST,,HARTFORD,CT,06106,,Unknown,41.74564734,-72.69881487
-72.686712099783563,41.75089813164351,597,HARTFORD MAGNET MIDDLE SCHOOL,53 VERNON ST,,HARTFORD,CT,06106,,Unknown,41.75089813,-72.68671210
-72.876350981312726,41.27493639130148,598,CARBONE SCHOOL/EAST HAVEN ACADEMY,200 TYLER ST,,EAST HAVEN,CT,06512,,Unknown,41.27493639,-72.87635098
-72.212695520182081,41.36921436465127,599,EAST LYME HIGH SCHOOL,30 CHESTERFIELD RD BOX 21,,EAST LYME,CT,06333,1244,Unknown,41.36921436,-72.21269552
-72.546458276128476,41.910763199562041,600,BROAD BROOK ELEMENTARY SCHOOL,14 RYE ST,,EAST WINDSOR,CT,06016,9552,Unknown,41.91076320,-72.54645828
-72.867541496842591,41.750715771615603,601,FARMINGTON HIGH SCHOOL,10 MONTEITH DR,,FARMINGTON,CT,06032,1052,Unknown,41.75071577,-72.86754150
-72.611559193601863,41.901053872338366,602,EAST WINDSOR HIGH SCHOOL,76 SOUTH MAIN ST,,EAST WINDSOR,CT,06088,9741,Unknown,41.90105387,-72.61155919
-72.546822436805996,41.922028797291205,603,EAST WINDSOR MIDDLE SCHOOL,38 MAIN ST,,BROAD BROOK,CT,06016,9602,Unknown,41.92202880,-72.54682244
-72.087035400962918,41.771913481122283,604,EASTCONN SPECIAL EDUCATION,376 HARTFORD TURNPIKE,,HAMPTON,CT,06247,1612,Unknown,41.77191348,-72.08703540
-72.59549386195215,41.979573428371054,605,HEAD START PROGRAM,1270 ENFIELD ST,,ENFIELD,CT,06082,4919,Unknown,41.97957343,-72.59549386
-72.216029714399781,41.712437411157623,606,ACT MAGNET SCHOOL (ARTS AT THE CAPITOL THEATER) -,896 MAIN ST,,WILLIMANTIC,CT,06226,,Unknown,41.71243741,-72.21602971
-71.889982623599167,41.826251204429582,607,QUINEBAUG VALLEY MIDDLE COLLEGE HIGH SCHOOL,742 UPPER MAPLE ST,,DANIELSON,CT,06239,,Unknown,41.82625120,-71.88998262
-72.082059381035549,41.902941429703276,608,EASTFORD ELEMENTARY SCHOOL,12 WESTFORD RD BOX 158,,EASTFORD,CT,06242,0158,Unknown,41.90294143,-72.08205938
-72.067031634102591,41.338986491433502,609,WEST SIDE MIDDLE SCHOOL,250 BRANDEGEE AVE,,GROTON,CT,06340,5108,Unknown,41.33898649,-72.06703163
-73.290210038662337,41.24096048284008,610,SAMUEL STAPLES ELEMENTARY SCHOOL,515 MOREHOUSE RD,,EASTON,CT,06612,1365,Unknown,41.24096048,-73.29021004
-72.466578462226209,41.904014608687305,611,CENTER SCHOOL,49 MAIN ST,,ELLINGTON,CT,06029,3341,Unknown,41.90401461,-72.46657846
-72.37818067999433,41.930883007744683,612,CRYSTAL LAKE SCHOOL,284 SANDY BEACH RD,,ELLINGTON,CT,06029,3020,Unknown,41.93088301,-72.37818068
-72.461967476218035,41.90877281101649,613,ELLINGTON HIGH SCHOOL,37 MAPLE ST,,ELLINGTON,CT,06029,3333,Unknown,41.90877281,-72.46196748
-72.459393878224887,41.878825098199798,614,ELLINGTON MIDDLE SCHOOL,46 MIDDLE BUTCHER RD,,ELLINGTON,CT,06029,,Unknown,41.87882510,-72.45939388
-72.539279009818415,42.000512805821359,615,ENRICO FERMI HIGH SCHOOL,124 NORTH MAPLE ST,,ENFIELD,CT,06082,3925,Unknown,42.00051281,-72.53927901
-72.590652231315403,41.972568504632818,616,HARRIET BEECHER STOWE SCHOOL,34 POST OFICE RD,,ENFIELD,CT,06082,5626,Unknown,41.97256850,-72.59065223
-72.539183671788976,41.993032025607533,617,HAZARDVILLE MEMORIAL SCHOOL,68 NORTH MAPLE ST,,ENFIELD,CT,06082,3904,Unknown,41.99303203,-72.53918367
-72.563377624677571,42.004025037925203,618,HENRY BARNARD SCHOOL,27 SHAKER RD,,ENFIELD,CT,06082,3199,Unknown,42.00402504,-72.56337763
-72.563642709743249,41.95677598142646,619,JOHN F. KENNEDY MIDDLE SCHOOL,155 RAFFIA RD,,ENFIELD,CT,06082,5679,Unknown,41.95677598,-72.56364271
-73.248721674965282,41.186693914792386,620,FAIRFIELD WOODS MIDDLE SCHOOL,1115 FAIRFIELD WOODS RD,,FAIRFIELD,CT,06824,,Unknown,41.18669391,-73.24872167
-73.244836512894722,41.170887597784485,621,HOLLAND HILL SCHOOL,200 MEADOWCROFT RD,,FAIRFIELD,CT,06824,,Unknown,41.17088760,-73.24483651
-73.246820000042931,41.187670000270373,622,JENNINGS SCHOOL,31 PALM DR,,FAIRFIELD,CT,06824,,Unknown,41.18767000,-73.24682000
-73.237706597781198,41.179388281144327,623,MCKINLEY SCHOOL,60 THOMPSON ST,,FAIRFIELD,CT,06824,,Unknown,41.17938828,-73.23770660
-73.282093259696126,41.145023059766459,624,MILL HILL SCHOOL,635 MILL HILL TERRACE,,FAIRFIELD,CT,06890,,Unknown,41.14502306,-73.28209326
-73.249731422966761,41.206882192858984,625,NORTH STRATFIELD SCHOOL,190 PUTTING GREEN RD,,FAIRFIELD,CT,06825,,Unknown,41.20688219,-73.24973142
-73.268154160985716,41.161961237421224,626,RIVERFIELD SCHOOL,1625 MILL PLAIN RD,,FAIRFIELD,CT,06824,,Unknown,41.16196124,-73.26815416
-73.245990974403924,41.14018348408058,627,SHERMAN SCHOOL,250 FERN ST,,FAIRFIELD,CT,06824,,Unknown,41.14018348,-73.24599097
-73.237226437150298,41.195099296095691,628,STRATFIELD SCHOOL,1407 MELVILLE AVE,,FAIRFIELD,CT,06825,,Unknown,41.19509930,-73.23722644
-73.257834848799178,41.144130225429592,629,TOMLINSON MIDDLE SCHOOL,200 UNQUOWA RD,,FAIRFIELD,CT,06824,,Unknown,41.14413022,-73.25783485
-72.799117063701487,41.721095767255918,630,IRVING A. ROBBINS MIDDLE SCHOOL,20 WOLF PIT RD,,FARMINGTON,CT,06032,2435,Unknown,41.72109577,-72.79911706
-72.82953959157885,41.721374824188842,631,NOAH WALLACE SCHOOL,2 SCHOOL ST,,FARMINGTON,CT,06032,2323,Unknown,41.72137482,-72.82953959
-72.89042838226402,41.758354735382795,632,UNION SCHOOL,173 SCHOOL ST,,UNIONVILLE,CT,06085,1096,Unknown,41.75835473,-72.89042838
-72.800842208900804,41.71967596077701,633,EAST FARMS SCHOOL,25 WOLF PIT RD,,FARMINGTON,CT,06032,2434,Unknown,41.71967596,-72.80084221
-72.872917173688563,41.71208533197256,634,WEST WOODS UPPER ELEMENTARY SCHOOL,50 JUDSON LN,,FARMINGTON,CT,06032,,Unknown,41.71208533,-72.87291717
-72.878180321064917,41.737628043999109,635,WEST DISTRICT SCHOOL,114 WEST DISTRICT RD,,UNIONVILLE,CT,06085,1465,Unknown,41.73762804,-72.87818032
-72.125282553147258,41.631219703726401,636,FRANKLIN ELEMENTARY SCHOOL,206 POND RD,,NORTH FRANKLIN,CT,06254,1219,Unknown,41.63121970,-72.12528255
-72.546750904730402,41.701352757024154,637,GIDEON WELLES SCHOOL,1029 NEIPSIC RD,,GLASTONBURY,CT,06033,2571,Unknown,41.70135276,-72.54675090
-73.618946799355285,41.057965729634759,638,NORTH STREET SCHOOL,381 NORTH ST,,GREENWICH,CT,06830,3903,Unknown,41.05796573,-73.61894680
-72.597231365634968,41.689470314303605,639,BUTTONBALL LANE SCHOOL,376 BUTTONBALL LN,,GLASTONBURY,CT,06033,3226,Unknown,41.68947031,-72.59723137
-72.593406477926578,41.701410195823939,640,GLASTONBURY HIGH SCHOOL,330 HUBBARD ST,,GLASTONBURY,CT,06033,3047,Unknown,41.70141020,-72.59340648
-72.559183276586907,41.718651221976359,641,HEBRON AVENUE SCHOOL,1323 HEBRON AVE,,GLASTONBURY,CT,06033,2508,Unknown,41.71865122,-72.55918328
-72.678302348674436,41.786727461902899,642,CLARK SCHOOL,75 CLARK ST,,HARTFORD,CT,06120,2010,Unknown,41.78672746,-72.67830235
-72.680538538123017,41.746412848374291,643,M. D. FOX COMPACT SCHOOL,470 MAPLE AVE,,HARTFORD,CT,06114,1215,Unknown,41.74641285,-72.68053854
-72.553211896911478,41.679493024183785,644,HOPEWELL SCHOOL,1050 CHESTNUT HILL RD,,GLASTONBURY,CT,06033,9670,Unknown,41.67949302,-72.55321190
-72.615200172649793,41.637665260843164,645,NAYAUG ELEMENTARY SCHOOL,222 OLD MAIDS LN,,SOUTH GLASTONBURY,CT,06073,,Unknown,41.63766526,-72.61520017
-72.792689752929732,41.959955529124443,646,GRANBY MEMORIAL HIGH SCHOOL,315 SALMON BROOK ST,,GRANBY,CT,06035,1804,Unknown,41.95995553,-72.79268975
-73.662217667911023,41.040620917221588,647,GLENVILLE SCHOOL,33 RIVERSVILLE RD,,GREENWICH,CT,06831,3627,Unknown,41.04062092,-73.66221767
-72.791529655369288,41.96104738612803,648,GRANBY MEMORIAL MIDDLE SCHOOL,321 SALMON BROOK ST,,GRANBY,CT,06035,1804,Unknown,41.96104739,-72.79152966
-72.808338003296171,41.990997421893553,649,WELLS ROAD INTERMEDIATE SCHOOL,134 WELLS RD,,GRANBY,CT,06035,1009,Unknown,41.99099742,-72.80833800
-73.653259283589023,41.111714012092023,650,PARKWAY SCHOOL,141 LOWER CROSS RD,,GREENWICH,CT,06831,3033,Unknown,41.11171401,-73.65325928
-73.605511973898444,41.048469210785527,651,CENTRAL MIDDLE SCHOOL,9 INDIAN ROCK LN,,GREENWICH,CT,06830,4004,Unknown,41.04846921,-73.60551197
-73.597810705999223,41.039592510985642,652,COS COB SCHOOL,300 EAST PUTNAM AVE,,COS COB,CT,06807,2545,Unknown,41.03959251,-73.59781071
-73.640346067616861,41.018118766268117,653,HAMILTON AVENUE SCHOOL,184 HAMILTON AVE,,GREENWICH,CT,06830,6113,Unknown,41.01811877,-73.64034607
-73.57942301995638,41.056767497222268,654,NORTH MIANUS SCHOOL,309 PALMER HILL RD,,RIVERSIDE,CT,06878,1011,Unknown,41.05676750,-73.57942302
-73.568079999592271,41.029719999978056,655,OLD GREENWICH SCHOOL,825 SOUND BEACH AVE,,OLD GREENWICH,CT,06870,1641,Unknown,41.02972000,-73.56808000
-71.979351694325203,41.595837688158838,656,GRISWOLD ELEMENTARY SCHOOL,303 SLATER AVE,,GRISWOLD,CT,06351,2540,Unknown,41.59583769,-71.97935169
-73.64974102692679,41.010910511211193,657,WESTERN MIDDLE SCHOOL,ONE WESTERN JUNIOR HWY,,GREENWICH,CT,06830,6019,Unknown,41.01091051,-73.64974103
-72.012746509443843,41.340441696127414,658,FITCH SENIOR HIGH SCHOOL,101 GROTON LONG POINT RD,,GROTON,CT,06340,4861,Unknown,41.34044170,-72.01274651
-72.076599629269424,41.376062991613821,659,PLEASANT VALLEY SCHOOL,380 PLEASANT VALLEY RD SOU,,GROTON,CT,06340,2898,Unknown,41.37606299,-72.07659963
-72.696550908697418,41.286615836351814,660,A. W. COX SCHOOL,143 THREE MILE COURSE,,GUILFORD,CT,06437,2522,Unknown,41.28661584,-72.69655091
-72.668947103426035,41.283019119236997,661,CALVIN LEETE SCHOOL,280 SOUTH UNION ST,,GUILFORD,CT,06437,2825,Unknown,41.28301912,-72.66894710
-72.684908084940105,41.292072675213831,662,E. C. ADAMS MIDDLE SCHOOL,233 CHURCH ST,,GUILFORD,CT,06437,2403,Unknown,41.29207268,-72.68490809
-72.712190205413606,41.313058059282071,663,GUILFORD HIGH SCHOOL,605 NEW ENGLAND RD,,GUILFORD,CT,06437,1838,Unknown,41.31305806,-72.71219020
-72.688630556954593,41.328172510752836,664,GUILFORD LAKES SCHOOL,40 MAUPAS RD,,GUILFORD,CT,06437,1615,Unknown,41.32817251,-72.68863056
-72.726427810694872,41.368904407012849,665,MELISSA JONES SCHOOL,181 LEDGE HILL RD,,GUILFORD,CT,06437,1024,Unknown,41.36890441,-72.72642781
-72.681817619587434,41.759373303035545,666,HARTFORD TRANSITIONAL LEARNING ACADEMY (SECONDARY),110 WASHINGTON ST,,HARTFORD,CT,06106,,Unknown,41.75937330,-72.68181762
-72.707935746637361,41.732351824077455,667,BATCHELDER SCHOOL,757 NEW BRITAIN AVE,,HARTFORD,CT,06106,3913,Unknown,41.73235182,-72.70793575
-72.672978996183701,41.747675579264637,668,BULKELEY HIGH SCHOOL LOWER SCHOOL,300 WETHERSFIELD AVE,,HARTFORD,CT,06114,1409,Unknown,41.74767558,-72.67297900
-72.691311554684489,41.761136386135377,669,BURNS LATINO STUDIES ACADEMY,195 PUTNAM ST,,HARTFORD,CT,06106,1328,Unknown,41.76113639,-72.69131155
-72.672245994756793,41.739617591678552,670,ASIAN STUDIES SCHOOL AT DWIGHT/BELIZZI SCHOOL,585 WETHERSFIELD ST,,HARTFORD,CT,06114,1918,Unknown,41.73961759,-72.67224599
-72.708161999876381,41.791799999770205,671,STEM MAGNET SCHOOL AT ANNIE-FISHER SCHOOL,280 PLAINFIELD ST,,HARTFORD,CT,06112,1740,Unknown,41.79180000,-72.70816200
-72.701231920416774,41.796057912842457,672,SARAH J. RAWSON ELEMENTARY SCHOOL,260 HOLCOMB ST,,HARTFORD,CT,06112,1436,Unknown,41.79605791,-72.70123192
-72.926578428751441,41.283669293103458,673,SOUND SCHOOL,60 SOUTH WATER ST,,NEW HAVEN,CT,06519,2822,Unknown,41.28366929,-72.92657843
-72.672570510620517,41.759564176045956,674,DR. RAMON E. BETANCES EARLY READING LAB SCHOOL,42 CHARTER OAK AVE,,HARTFORD,CT,06106,1909,Unknown,41.75956418,-72.67257051
-72.670389383962856,41.798000043767047,675,HARTFORD TRANSITIONAL LEARNING ACADEMY (ELEMENTARY,150 TOWER AVE,,HARTFORD,CT,06120,,Unknown,41.79800004,-72.67038938
-72.657491986166178,41.807630889853726,676,PATHWAYS TO TECHNOLOGY MAGNET SCHOOL,184 WINDSOR AVE,,WINDSOR,CT,06095,,Unknown,41.80763089,-72.65749199
-72.574633633835106,41.29473888089467,677,TOWN CAMPUS LEARNING CENTER,2 CAMPUS DR,,MADISON,CT,06433,,Unknown,41.29473888,-72.57463363
-72.708161999876381,41.791799999770205,678,ANNIE FISHER MONTESSORI MAGNET SCHOOL,280 PLAINFIELD ST,,HARTFORD,CT,06112,,Unknown,41.79180000,-72.70816200
-72.670389383962856,41.798000043767047,679,BREAKTHROUGH II,150 TOWER AVE,,HARTFORD,CT,06120,,Unknown,41.79800004,-72.67038938
-72.670389383962856,41.798000043767047,680,IB GLOBAL COMMUNICATIONS ACADEMY,150 TOWER AVE,,HARTFORD,CT,06120,,Unknown,41.79800004,-72.67038938
-72.678265051091216,41.767282438433824,681,HIGH SCHOOL INC.,275 ASYLUM ST,,HARTFORD,CT,06103,,Unknown,41.76728244,-72.67826505
-72.68862156193552,41.775032186985868,682,OPPORTUNITY HIGH SCHOOL,2028 SARGENT ST,,HARTFORD,CT,06105,,Unknown,41.77503219,-72.68862156
-72.672448135373088,41.748502811655499,683,BULKELEY HIGH SCHOOL UPPER SCHOOL,300WETHERSFIELD AVE,,HARTFORD,CT,06114,,Unknown,41.74850281,-72.67244813
-72.701116621035169,41.764806209139294,684,HPHS ACADEMY OF ENGINEERING AND GREEN TECHNOLOGY,55 FOREST ST,,HARTFORD,CT,06105,,Unknown,41.76480621,-72.70111662
-72.701116621035169,41.764806209139294,685,HPHS FRESHMEN ACADEMY,55 FOREST ST,,HARTFORD,CT,06105,,Unknown,41.76480621,-72.70111662
-72.701116621035169,41.764806209139294,686,HPHS LAW AND GOVERNMENT ACADEMY,55 FOREST ST,,HARTFORD,CT,06105,,Unknown,41.76480621,-72.70111662
-72.682101584120744,41.795569610649068,687,RENZULLI ACADEMY,55 WAVERLY ST,,HARTFORD,CT,06120,,Unknown,41.79556961,-72.68210158
-72.700607310678834,41.796063861857817,688,SARAH J RAWSON MIDDLE GRADES ACADEMY,260 HOLCOMB ST,,HARTFORD,CT,06112,,Unknown,41.79606386,-72.70060731
-72.906881141851159,41.997005430056618,689,HARTLAND SCHOOL,30 SOUTH RD BOX 559,,EAST HARTLAND,CT,06027,9710,Unknown,41.99700543,-72.90688114
-72.409016491317971,41.676578779187366,690,GILEAD HILL SCHOOL,580 GILEAD ST,,HEBRON,CT,06248,1314,Unknown,41.67657878,-72.40901649
-72.362456441411609,41.652253714137657,691,HEBRON ELEMENTARY SCHOOL,92 CHURCH ST,,HEBRON,CT,06248,1427,Unknown,41.65225371,-72.36245644
-73.481955789827794,41.724166673253421,692,KENT CENTER SCHOOL,9 JUDD ST,,KENT,CT,06757,0219,Unknown,41.72416667,-73.48195579
-71.911126925067492,41.842555665811403,693,GOODYEAR EARLY CHILDHOOD CENTER,22 WILLIAMSVILLE RD,,ROGERS,CT,06263,0218,Unknown,41.84255567,-71.91112693
-71.885295000064161,41.849963000192361,694,KILLINGLY CENTRAL SCHOOL,60 SOAP ST,,DAYVILLE,CT,06241,0365,Unknown,41.84996300,-71.88529500
-71.873225621565155,41.86007080532346,695,KILLINGLY HIGH SCHOOL,226 PUTNAM PK,,DAYVILLE,CT,06241,2145,Unknown,41.86007080,-71.87322562
-71.879217889793722,41.810324891780397,696,KILLINGLY MEMORIAL SCHOOL,339 MAIN ST,,DANIELSON,CT,06239,2856,Unknown,41.81032489,-71.87921789
-72.237453249068153,41.625349593109263,697,LEBANON MIDDLE SCHOOL,891 EXETER RD,,LEBANON,CT,06249,1742,Unknown,41.62534959,-72.23745325
-71.897486655784519,41.851412142556399,698,KILLINGLY INTERMEDIATE SCHOOL,1599 UPPER MAPLE ST,,DAYVILLE,CT,06241,1543,Unknown,41.85141214,-71.89748666
-72.016321299288506,41.442008073014222,699,LEDYARD CENTER SCHOOL,740 COLONEL LEDYARD HWY,,LEDYARD,CT,06339,1541,Unknown,41.44200807,-72.01632130
-72.015559425127321,41.604891715380404,700,COMMUNITY CONNECTION - THE BIG PICTURE HIGH SCHOOL,15 NEWENT RD,,LISBON,CT,06351,,Unknown,41.60489172,-72.01555943
-72.700726771223458,41.46825236055804,701,FREDERICK BREWSTER SCHOOL,126 TUTTLE RD,,DURHAM,CT,06422,2213,Unknown,41.46825236,-72.70072677
-73.19486120478075,41.746041980553002,702,CENTER SCHOOL,125 WEST ST BOX 110,,LITCHFIELD,CT,06759,3401,Unknown,41.74604198,-73.19486120
-73.207429360776359,41.742888527583546,703,LITCHFIELD HIGH SCHOOL,14 PLUMB HILL RD BOX 110,,LITCHFIELD,CT,06759,3416,Unknown,41.74288853,-73.20742936
-73.204973674695282,41.739925310904425,704,LITCHFIELD INTERMEDIATE SCHOOL,35 PLUMB HILL RD BOX 110,,LITCHFIELD,CT,06759,3417,Unknown,41.73992531,-73.20497368
-72.615936257851956,41.295009197316631,705,J. MILTON JEFFREY ELEMENTARY SCHOOL,331 COPSE RD,,MADISON,CT,06443,2372,Unknown,41.29500920,-72.61593626
-72.62616876567597,41.340581059568308,706,KATHLEEN H. RYERSON ELEMENTARY SCHOOL,982 DURHAM RD,,MADISON,CT,06443,1843,Unknown,41.34058106,-72.62616877
-72.618556614296267,41.295389478341804,707,WALTER C. POLSON UPPER MIDDLE SCHOOL,302 GREEN HILL RD,,MADISON,CT,06443,2283,Unknown,41.29538948,-72.61855661
-72.512577646341242,41.785988917054908,708,ILLING MIDDLE SCHOOL,227 EAST MIDDLE TURNPIKE,,MANCHESTER,CT,06040,4206,Unknown,41.78598892,-72.51257765
-72.897317046144735,41.269786257230066,709,NATHAN HALE SCHOOL,480 TOWNSEND AVE,,NEW HAVEN,CT,06512,3964,Unknown,41.26978626,-72.89731705
-72.517378145584928,41.781921727705594,710,MANCHESTER HIGH SCHOOL,134 EAST MIDDLE TURNPIKE,,MANCHESTER,CT,06040,4246,Unknown,41.78192173,-72.51737815
-72.51251273057801,41.754445094665414,711,MARTIN SCHOOL,140 DARTMOUTH RD,,MANCHESTER,CT,06040,6616,Unknown,41.75444510,-72.51251273
-72.517023682297065,41.771009487098183,712,NATHAN HALE SCHOOL,160 SPRUCE ST,,MANCHESTER,CT,06040,5455,Unknown,41.77100949,-72.51702368
-72.553621434681418,41.772886034962596,713,VERPLANCK SCHOOL,126 OLCOTT ST,,MANCHESTER,CT,06040,2632,Unknown,41.77288603,-72.55362143
-72.534614854092183,41.784147887015422,714,WADDELL SCHOOL,163 BROAD ST,,MANCHESTER,CT,06040,2903,Unknown,41.78414789,-72.53461485
-72.568144313009611,41.758975949280682,715,MANCHESTER REGIONAL ACADEMY,665 WETHERELL ST,,MANCHESTER,CT,06040,6348,Unknown,41.75897595,-72.56814431
-72.524605808910906,41.796944699238509,716,ROBERTSON SCHOOL,65 NORTH SCHOOL ST,,MANCHESTER,CT,06040,2012,Unknown,41.79694470,-72.52460581
-72.520927022364162,41.786717385898669,717,MANCHESTER PRESCHOOL CENTER,70 WASHINGTON ST,,MANCHESTER,CT,06040,3532,Unknown,41.78671739,-72.52092702
-72.656414459859377,41.56667902161962,718,MACDONOUGH SCHOOL,66 SPRING ST,,MIDDLETOWN,CT,06457,2262,Unknown,41.56667902,-72.65641446
-72.259511036904769,41.74659642068832,719,ANNIE E. VINTON SCHOOL,306 STAFFORD RD,,MANSFIELD CENTER,CT,06250,1424,Unknown,41.74659642,-72.25951104
-72.229594865110869,41.778362867552346,720,MANSFIELD MIDDLE SCHOOL SCHOOL,205 SPRING HILL RD,,STORRS,CT,06268,2819,Unknown,41.77836287,-72.22959486
